<places>
	<place>
		<name>Abortmottagning Gynekologi Östra, Göteborg</name>
		<lat>57.7215714050826</lat>
		<lon>12.0530301022504</lon>
	</place>
	<place>
		<name>Abortmottagning Gävle, Gävle</name>
		<lat>60.6773747135733</lat>
		<lon>17.1187918488436</lon>
	</place>
	<place>
		<name>Abortmottagning Hudiksvall, Hudiksvall</name>
		<lat>61.7294285106181</lat>
		<lon>17.0988217814713</lon>
	</place>
	<place>
		<name>Achima Care Ekeby BVC, Ekeby</name>
		<lat>56.0046868600911</lat>
		<lon>12.9640165956972</lon>
	</place>
	<place>
		<name>Achima Care Ekeby, Ekeby</name>
		<lat>55.8043704461712</lat>
		<lon>13.6065667237427</lon>
	</place>
	<place>
		<name>ADDA Sjukgymnastik Motion &amp; Hälsa David Agah, Skara</name>
		<lat>58.3830593194277</lat>
		<lon>13.4270471049719</lon>
	</place>
	<place>
		<name>Administrativt Stöd, Huvudkontoret, Folktandvården Sörmland AB</name>
		<lat>58.7519693443649</lat>
		<lon>17.0063011171773</lon>
	</place>
	<place>
		<name>Admira Kvinnohälsa, Lund</name>
		<lat>0.00587420450848654</lat>
		<lon>2.45441230668005</lon>
	</place>
	<place>
		<name>Adolfsbergs vårdcentral, Örebro</name>
		<lat>59.2392725086974</lat>
		<lon>15.1605242805651</lon>
	</place>
	<place>
		<name>Affektiva mottagningen</name>
		<lat>62.4106295914123</lat>
		<lon>17.3005736074309</lon>
	</place>
	<place>
		<name>Affektiva mottagningen, Vuxenpsykiatri</name>
		<lat>65.3475656908058</lat>
		<lon>21.4107605802993</lon>
	</place>
	<place>
		<name>Affektivt Centrum, Göteborg</name>
		<lat>57.7045391022975</lat>
		<lon>11.9667705963627</lon>
	</place>
	<place>
		<name>Affektiv mottagning Halmstad, Halmstad</name>
		<lat>56.6796867868972</lat>
		<lon>12.8523741980896</lon>
	</place>
	<place>
		<name>Agneta Wikströms gynmottagning</name>
		<lat>59.858367171749</lat>
		<lon>17.6451669180379</lon>
	</place>
	<place>
		<name>AG Sjukgymnastik</name>
		<lat>0.00587420450848654</lat>
		<lon>2.45441230668005</lon>
	</place>
	<place>
		<name>AH-teamet Västerås</name>
		<lat>59.6201354527861</lat>
		<lon>16.5796780634159</lon>
	</place>
	<place>
		<name>Akademigruppens specialistklinik</name>
		<lat>59.858367171749</lat>
		<lon>17.6451669180379</lon>
	</place>
	<place>
		<name>Akademiska sjukhuset</name>
		<lat>59.8492385848209</lat>
		<lon>17.6398630302379</lon>
	</place>
	<place>
		<name>Aktiverakliniken</name>
		<lat>0.00587420450848654</lat>
		<lon>2.45441230668005</lon>
	</place>
	<place>
		<name>Aktivitets- och behandlingscentrum Kinna, Skene</name>
		<lat>57.4866266897956</lat>
		<lon>12.6469483304113</lon>
	</place>
	<place>
		<name>Aktivitets- och behandlingscentrum, Borås</name>
		<lat>57.7210258397127</lat>
		<lon>12.9670120243265</lon>
	</place>
	<place>
		<name>Aktiv Hälsa</name>
		<lat>59.8597462362488</lat>
		<lon>17.6344615874197</lon>
	</place>
	<place>
		<name>Akutavdelning barn- och ungdomspsykiatri, Göteborg</name>
		<lat>57.7187725493358</lat>
		<lon>12.0532026312773</lon>
	</place>
	<place>
		<name>Akuta LAH-enheten, LAH Linköping</name>
		<lat>58.4020531816001</lat>
		<lon>15.6233278220464</lon>
	</place>
	<place>
		<name>Akutenheten, Psykiatriska kliniken</name>
		<lat>58.4007787247335</lat>
		<lon>15.6236080655071</lon>
	</place>
	<place>
		<name>Akutenheten, Vuxenpsykiatriska kliniken ViN</name>
		<lat>58.5636180483013</lat>
		<lon>16.1825793487974</lon>
	</place>
	<place>
		<name>Akutgeriatrik och rehabilitering 2B</name>
		<lat>65.3121402181658</lat>
		<lon>21.4985221460227</lon>
	</place>
	<place>
		<name>Akutgeriatriska kliniken</name>
		<lat>56.874683756492</lat>
		<lon>14.8075659369577</lon>
	</place>
	<place>
		<name>Akutgeriatrisk avdelning 13</name>
		<lat>56.874683756492</lat>
		<lon>14.8075659369577</lon>
	</place>
	<place>
		<name>Akutgeriatrisk avdelning 17B, Länssjukhuset Sundsvall-Härnösand</name>
		<lat>0.00587420450848654</lat>
		<lon>2.45441230668005</lon>
	</place>
	<place>
		<name>Akutkirurgi, Medicinska specialistkliniken</name>
		<lat>58.5451499280858</lat>
		<lon>15.0281373774763</lon>
	</place>
	<place>
		<name>Akutkliniken ViN, Norrköping</name>
		<lat>58.5630741516661</lat>
		<lon>16.1782093674787</lon>
	</place>
	<place>
		<name>Akutkliniken, Halmstad</name>
		<lat>56.6822604465787</lat>
		<lon>12.8442224751966</lon>
	</place>
	<place>
		<name>Akutkliniken, Varberg</name>
		<lat>57.0979772200495</lat>
		<lon>12.2743062954477</lon>
	</place>
	<place>
		<name>Akutklinik, Alingsås</name>
		<lat>57.9288433746336</lat>
		<lon>12.5212332088758</lon>
	</place>
	<place>
		<name>Akutklinik, Kungälv</name>
		<lat>57.8787222103311</lat>
		<lon>11.9696632371911</lon>
	</place>
	<place>
		<name>Akutklin Mottagning Jkp, Länssjukhuset Ryhov Jönköping</name>
		<lat>57.7663311513018</lat>
		<lon>14.1961185853917</lon>
	</place>
	<place>
		<name>Akutläkarna Stampen, Centrum</name>
		<lat>57.7076975727105</lat>
		<lon>11.9784579451936</lon>
	</place>
	<place>
		<name>Akutläkarna Västra Frölunda</name>
		<lat>57.6547212792678</lat>
		<lon>11.9031314525821</lon>
	</place>
	<place>
		<name>Akutmottagningen</name>
		<lat>59.8492385848209</lat>
		<lon>17.6398630302379</lon>
	</place>
	<place>
		<name>Akutmottagningen Eks, Höglandssjukhuset Eksjö</name>
		<lat>57.6658959812172</lat>
		<lon>14.9644185967091</lon>
	</place>
	<place>
		<name>Akutmottagningen för barn och ungdom</name>
		<lat>0.00587420450848654</lat>
		<lon>2.45441230668005</lon>
	</place>
	<place>
		<name>Akutmottagningen Kalmar, Kalmar</name>
		<lat>56.6586492882264</lat>
		<lon>16.3250194665567</lon>
	</place>
	<place>
		<name>Akutmottagningen Kullbergska sjukhuset, Vårdplats- och mottagningsenheten Kullbergska sjukhuset, Landstinget Sörmland</name>
		<lat>58.9917925802038</lat>
		<lon>16.2216631195709</lon>
	</place>
	<place>
		<name>Akutmottagningen Köping, Västmanlands sjukhus Köping</name>
		<lat>59.5091061166447</lat>
		<lon>16.0026775851061</lon>
	</place>
	<place>
		<name>Akutmottagningen Ljungby</name>
		<lat>56.8353449689204</lat>
		<lon>13.9352136498297</lon>
	</place>
	<place>
		<name>Akutmottagningen Mälarsjukhuset, Landstinget Sörmland</name>
		<lat>59.3625163389397</lat>
		<lon>16.5370043166585</lon>
	</place>
	<place>
		<name>Akutmottagningen Nyköpings lasarett, Landstinget Sörmland</name>
		<lat>58.7601693655199</lat>
		<lon>16.9963019243623</lon>
	</place>
	<place>
		<name>Akutmottagningen Oskarshamn, Oskarshamn</name>
		<lat>57.2636526661362</lat>
		<lon>16.4226040958002</lon>
	</place>
	<place>
		<name>Akutmottagningen Västervik</name>
		<lat>57.7561368739379</lat>
		<lon>16.637337671814</lon>
	</place>
	<place>
		<name>Akutmottagningen Växjö</name>
		<lat>56.873241206103</lat>
		<lon>14.8079815988422</lon>
	</place>
	<place>
		<name>Akutmottagningen, Enköping</name>
		<lat>59.6291746596602</lat>
		<lon>17.0697017888682</lon>
	</place>
	<place>
		<name>Akutmottagningen, Halmstad</name>
		<lat>56.6817517383271</lat>
		<lon>12.8485231135098</lon>
	</place>
	<place>
		<name>Akutmottagningen, Länssjukhuset Sundsvall-Härnösand</name>
		<lat>62.4080247565947</lat>
		<lon>17.305803018317</lon>
	</place>
	<place>
		<name>Akutmottagningen, Torsby</name>
		<lat>60.1370269487903</lat>
		<lon>12.9984666645896</lon>
	</place>
	<place>
		<name>Akutmottagningen/Observationsavdelningen, Varberg</name>
		<lat>57.0977700954003</lat>
		<lon>12.2765219727738</lon>
	</place>
	<place>
		<name>Akutmottagning barn, Göteborg</name>
		<lat>57.7215704257303</lat>
		<lon>12.0526942753596</lon>
	</place>
	<place>
		<name>Akutmottagning för ortopedi och ögonsjukvård Uddevalla sjukhus, Uddevalla</name>
		<lat>58.3561521309252</lat>
		<lon>11.9301987371797</lon>
	</place>
	<place>
		<name>Akutmottagning gynekologi Sahlgrenska, Göteborg</name>
		<lat>57.6827284436185</lat>
		<lon>11.9624022492512</lon>
	</place>
	<place>
		<name>Akutmottagning Gävle, Gävle</name>
		<lat>60.6773747135733</lat>
		<lon>17.1187918488436</lon>
	</place>
	<place>
		<name>Akutmottagning Hudiksvall, Hudiksvall</name>
		<lat>61.7294285106181</lat>
		<lon>17.0988217814713</lon>
	</place>
	<place>
		<name>Akutmottagning Karlshamn</name>
		<lat>56.1879605175451</lat>
		<lon>14.851326410565</lon>
	</place>
	<place>
		<name>Akutmottagning Karlskrona</name>
		<lat>56.1821529091769</lat>
		<lon>15.6051506191884</lon>
	</place>
	<place>
		<name>Akutmottagning Karlstad</name>
		<lat>59.3748247978596</lat>
		<lon>13.4803149264388</lon>
	</place>
	<place>
		<name>Akutmottagning Kss, Skövde</name>
		<lat>58.4258735489696</lat>
		<lon>13.8495957657988</lon>
	</place>
	<place>
		<name>Akutmottagning Lycksele</name>
		<lat>64.5848903578178</lat>
		<lon>18.6792308734976</lon>
	</place>
	<place>
		<name>Akutmottagning Norra Älvsborgs Länssjukhus, Trollhättan</name>
		<lat>58.3198552970257</lat>
		<lon>12.2656379382405</lon>
	</place>
	<place>
		<name>Akutmottagning Skellefteå</name>
		<lat>64.756485141436</lat>
		<lon>20.9431657597636</lon>
	</place>
	<place>
		<name>Akutmottagning Umeå</name>
		<lat>63.8173182557747</lat>
		<lon>20.2994987035185</lon>
	</place>
	<place>
		<name>Akutmottagning US, Akutkliniken US</name>
		<lat>58.4013682186581</lat>
		<lon>15.6214842675131</lon>
	</place>
	<place>
		<name>Akutmottagning Västerås</name>
		<lat>59.6170401635979</lat>
		<lon>16.5824417148066</lon>
	</place>
	<place>
		<name>Akutmottagning, Alingsås</name>
		<lat>57.9287985558755</lat>
		<lon>12.5212373065991</lon>
	</place>
	<place>
		<name>Akutmottagning, Danderyd</name>
		<lat>59.3917731574161</lat>
		<lon>18.0395850963245</lon>
	</place>
	<place>
		<name>Akutmottagning, Gotland</name>
		<lat>57.6480427760847</lat>
		<lon>18.3006764807028</lon>
	</place>
	<place>
		<name>Akutmottagning, Göteborg</name>
		<lat>57.7214320952282</lat>
		<lon>12.051667241118</lon>
	</place>
	<place>
		<name>Akutmottagning, Kungälv</name>
		<lat>57.8787222103311</lat>
		<lon>11.9696632371911</lon>
	</place>
	<place>
		<name>Akutmottagning, Lidköping</name>
		<lat>58.4994188434051</lat>
		<lon>13.1522337096009</lon>
	</place>
	<place>
		<name>Akutmottagning, Medicinska specialistkliniken</name>
		<lat>58.5451499280858</lat>
		<lon>15.0281373774763</lon>
	</place>
	<place>
		<name>Akutmottagning, Mölndal</name>
		<lat>57.660351165311</lat>
		<lon>12.0142064242419</lon>
	</place>
	<place>
		<name>Akutmottagning, Sollefteå sjukhus</name>
		<lat>0.00587420450848654</lat>
		<lon>2.45441230668005</lon>
	</place>
	<place>
		<name>Akutmottagning, Örnsköldsviks sjukhus</name>
		<lat>63.300039448199</lat>
		<lon>18.7123304859841</lon>
	</place>
	<place>
		<name>Akutortopedi, Medicinska specialistkliniken</name>
		<lat>58.5451499280858</lat>
		<lon>15.0281373774763</lon>
	</place>
	<place>
		<name>Akutpsykiatriska avdelningen</name>
		<lat>56.8681789047884</lat>
		<lon>14.8219070853046</lon>
	</place>
	<place>
		<name>Akutpsykiatriska mottagningen</name>
		<lat>56.8681789047884</lat>
		<lon>14.8219070853046</lon>
	</place>
	<place>
		<name>Akutpsykiatri avdelning 7</name>
		<lat>62.4079212284125</lat>
		<lon>17.3037470157579</lon>
	</place>
	<place>
		<name>Akutsjukvårdens mottagning</name>
		<lat>0.00587420450848654</lat>
		<lon>2.45441230668005</lon>
	</place>
	<place>
		<name>Akutsjukvård Kalix, Kalix centrala</name>
		<lat>65.8544968491684</lat>
		<lon>23.1570410107145</lon>
	</place>
	<place>
		<name>Akutsjukvård Piteå, Opererande specialiteter</name>
		<lat>65.312135368557</lat>
		<lon>21.4986501987559</lon>
	</place>
	<place>
		<name>Akutsjukvård Sunderbyn, Opererande specialiteter</name>
		<lat>65.6722408780192</lat>
		<lon>21.9325379060353</lon>
	</place>
	<place>
		<name>Akutvårdsavdelningen</name>
		<lat>56.874683756492</lat>
		<lon>14.8075659369577</lon>
	</place>
	<place>
		<name>Akutvårdsavdelningen för barn och ungdom</name>
		<lat>0.00587420450848654</lat>
		<lon>2.45441230668005</lon>
	</place>
	<place>
		<name>Akutvårdsavdelningen Mälarsjukhuset, Akutkliniken Mälarsjukhuset, Landstinget Sörmland</name>
		<lat>59.3630049685195</lat>
		<lon>16.5363114284189</lon>
	</place>
	<place>
		<name>Akutvårdsavdelning Gävle, Gävle</name>
		<lat>60.6773747135733</lat>
		<lon>17.1187918488436</lon>
	</place>
	<place>
		<name>Akutvårdsavdelning Gävle, Gävle</name>
		<lat>60.6773747135733</lat>
		<lon>17.1187918488436</lon>
	</place>
	<place>
		<name>Akutvårdsavdelning MAVA, Länssjukhuset Sundsvall-Härnösand</name>
		<lat>0.00587420450848654</lat>
		<lon>2.45441230668005</lon>
	</place>
	<place>
		<name>Akutvårdsavdelning 1, Borås</name>
		<lat>57.7240107837455</lat>
		<lon>12.9631176643893</lon>
	</place>
	<place>
		<name>Akutvårdsavdelning 8, Länssjukhuset Sundsvall-Härnösand</name>
		<lat>62.4080247565947</lat>
		<lon>17.305803018317</lon>
	</place>
	<place>
		<name>Akutvårdsavdelning, Halmstad</name>
		<lat>0.00587420450848654</lat>
		<lon>2.45441230668005</lon>
	</place>
	<place>
		<name>Akutvårdsavd ava, Kirurgiska kliniken ViN</name>
		<lat>58.5630741516661</lat>
		<lon>16.1782093674787</lon>
	</place>
	<place>
		<name>Akut Dagvårdsavdelning, Skövde</name>
		<lat>58.4268537752739</lat>
		<lon>13.8520408400991</lon>
	</place>
	<place>
		<name>Akut op klin Akutmott Vmo, Värnamo sjukhus</name>
		<lat>57.1759242488191</lat>
		<lon>14.0265281533235</lon>
	</place>
	<place>
		<name>Akut op klin Anestesi Vmo, Värnamo</name>
		<lat>57.1734119540222</lat>
		<lon>14.0298732589326</lon>
	</place>
	<place>
		<name>Akut op klin IVA Vmo, Värnamo</name>
		<lat>57.1734119540222</lat>
		<lon>14.0298732589326</lon>
	</place>
	<place>
		<name>Akut op klin OPC Vmo, Värnamo</name>
		<lat>57.1734119540222</lat>
		<lon>14.0298732589326</lon>
	</place>
	<place>
		<name>Akut op klin Smärtenheten Vmo, Värnamo</name>
		<lat>57.1734119540222</lat>
		<lon>14.0298732589326</lon>
	</place>
	<place>
		<name>Akut Stroke och Neurologi</name>
		<lat>59.6175902069044</lat>
		<lon>16.580505448044</lon>
	</place>
	<place>
		<name>Akut- och konsultpsykiatri</name>
		<lat>59.828768381536</lat>
		<lon>17.6501510497907</lon>
	</place>
	<place>
		<name>Akut- och olycksfallsmottagningen, Göteborg</name>
		<lat>57.6830806025093</lat>
		<lon>11.9597976785714</lon>
	</place>
	<place>
		<name>Akut- och rehabiliteringsdivisionen</name>
		<lat>0.00587420450848654</lat>
		<lon>2.45441230668005</lon>
	</place>
	<place>
		<name>AK mottagning, Medicinkliniken ViN</name>
		<lat>58.5636754900134</lat>
		<lon>16.1782672876115</lon>
	</place>
	<place>
		<name>AK - mottagning, Medicinska specialistkliniken</name>
		<lat>58.544422910249</lat>
		<lon>15.0281706627249</lon>
	</place>
	<place>
		<name>AK-mottagning Finspång, Klinisk kemi</name>
		<lat>58.7106200338537</lat>
		<lon>15.7608496734421</lon>
	</place>
	<place>
		<name>AK-mottagning LiM, Klinisk kemi</name>
		<lat>58.544422910249</lat>
		<lon>15.0281706627249</lon>
	</place>
	<place>
		<name>AK-mottagning Norra Älvsborgs Länssjukhus, Trollhättan</name>
		<lat>58.3172825781816</lat>
		<lon>12.2697547323379</lon>
	</place>
	<place>
		<name>AK-mottagning Uddevalla Sjukhus, Uddevalla</name>
		<lat>58.3560370655157</lat>
		<lon>11.9296642137774</lon>
	</place>
	<place>
		<name>AK-mottagning US, Klinisk kemi</name>
		<lat>58.401502391873</lat>
		<lon>15.6211415078243</lon>
	</place>
	<place>
		<name>AK-mottagning, Borås</name>
		<lat>57.7250672552708</lat>
		<lon>12.9617585990124</lon>
	</place>
	<place>
		<name>AK-mottagning, Lidköping</name>
		<lat>58.4974165441921</lat>
		<lon>13.1505318385521</lon>
	</place>
	<place>
		<name>AK-mottagning, Mölndal</name>
		<lat>57.6607883285299</lat>
		<lon>12.0108070293953</lon>
	</place>
	<place>
		<name>AK-Mottagning, Sandviken</name>
		<lat>0.00587420450848654</lat>
		<lon>2.45441230668005</lon>
	</place>
	<place>
		<name>AK-mottagning, Skövde</name>
		<lat>58.4273722002894</lat>
		<lon>13.8512930742131</lon>
	</place>
	<place>
		<name>AK-teamet Kullbergska sjukhuset, Medicinmottagningen Kullbergska sjukhuset, Landstinget Sörmland</name>
		<lat>58.9922281984909</lat>
		<lon>16.2201897917913</lon>
	</place>
	<place>
		<name>AK-teamet Mälarsjukhuset, Medicinmottagningen Mälarsjukhuset, Landstinget Sörmland</name>
		<lat>59.3634553311655</lat>
		<lon>16.5360397401407</lon>
	</place>
	<place>
		<name>Alby vårdcentral, Botkyrka</name>
		<lat>59.2379974842131</lat>
		<lon>17.84466038802</lon>
	</place>
	<place>
		<name>Aleris vårdcentral Ingrid Marie</name>
		<lat>0.00587420450848654</lat>
		<lon>2.45441230668005</lon>
	</place>
	<place>
		<name>Aleris Vårdcentral Järva, Rinkeby/Kista</name>
		<lat>59.3861609650038</lat>
		<lon>17.9375980684919</lon>
	</place>
	<place>
		<name>Alfta Din hälsocentral, Alfta</name>
		<lat>61.3458037187291</lat>
		<lon>16.0695155784545</lon>
	</place>
	<place>
		<name>Alingsås Husläkarmottagning Anders Hamark, Alingsås</name>
		<lat>57.9245086919539</lat>
		<lon>12.5255980446355</lon>
	</place>
	<place>
		<name>Alingsås Lasarett, Alingsås</name>
		<lat>57.9283831713974</lat>
		<lon>12.5211570582619</lon>
	</place>
	<place>
		<name>Alkoholmottagningen Mönsterås</name>
		<lat>0.00587420450848654</lat>
		<lon>2.45441230668005</lon>
	</place>
	<place>
		<name>Alkoholmottagningen Oskarshamn</name>
		<lat>0.00587420450848654</lat>
		<lon>2.45441230668005</lon>
	</place>
	<place>
		<name>Alkoholmottagningen Vimmerby</name>
		<lat>57.6661810859269</lat>
		<lon>15.8573669547584</lon>
	</place>
	<place>
		<name>Alkoholmottagningen Västervik</name>
		<lat>57.7664635974266</lat>
		<lon>16.6122030425728</lon>
	</place>
	<place>
		<name>Alkoholpolikliniken Strängnäs, Landstinget Sörmland</name>
		<lat>59.3774016416205</lat>
		<lon>17.0227805995327</lon>
	</place>
	<place>
		<name>Alkohol- och drogmottagning Umeå</name>
		<lat>63.8327586486888</lat>
		<lon>20.2525066988751</lon>
	</place>
	<place>
		<name>Allemanshälsans vårdcentral Frölunda, Västra Frölunda</name>
		<lat>57.6539065841984</lat>
		<lon>11.9041076702857</lon>
	</place>
	<place>
		<name>Allemanshälsans vårdcentral Gamlestaden, Gamlestaden</name>
		<lat>57.730561196418</lat>
		<lon>12.0127505707633</lon>
	</place>
	<place>
		<name>Allemanshälsans vårdcentral Jungfruplatsen, Mölndal</name>
		<lat>57.6589324692548</lat>
		<lon>12.0002026495554</lon>
	</place>
	<place>
		<name>Allemanshälsans vårdcentral Landala, Landala</name>
		<lat>57.6950706983389</lat>
		<lon>11.9692843459585</lon>
	</place>
	<place>
		<name>Allemanshälsans vårdcentral Lunden, Skövde</name>
		<lat>58.4073129464054</lat>
		<lon>13.867409994982</lon>
	</place>
	<place>
		<name>Allemanshälsans vårdcentral Nol, Nol</name>
		<lat>57.9172933410509</lat>
		<lon>12.0637675932188</lon>
	</place>
	<place>
		<name>Allemanshälsans vårdcentral Sävedalen, Partille</name>
		<lat>57.7325050362587</lat>
		<lon>12.0726460956716</lon>
	</place>
	<place>
		<name>Allergicentrum</name>
		<lat>58.4273722002894</lat>
		<lon>13.8512930742131</lon>
	</place>
	<place>
		<name>Allergimottagningen för barn och ungdom</name>
		<lat>0.00587420450848654</lat>
		<lon>2.45441230668005</lon>
	</place>
	<place>
		<name>Allergimottagningen Ljungby</name>
		<lat>0.00587420450848654</lat>
		<lon>2.45441230668005</lon>
	</place>
	<place>
		<name>Allergimottagning allmän, Allergicentrum US</name>
		<lat>58.402043470242</lat>
		<lon>15.6228147782663</lon>
	</place>
	<place>
		<name>Allergimottagning barn, Allergicentrum US</name>
		<lat>58.402043470242</lat>
		<lon>15.6228147782663</lon>
	</place>
	<place>
		<name>Allergimottagning barn, Barn- och Ungdomskliniken</name>
		<lat>59.6183113451513</lat>
		<lon>16.5845440623197</lon>
	</place>
	<place>
		<name>Allergimottagning hud, Allergicentrum US</name>
		<lat>58.402043470242</lat>
		<lon>15.6228147782663</lon>
	</place>
	<place>
		<name>Allergimottagning Norra Älvsborgs Länssjukhus, Trollhättan</name>
		<lat>58.3173316514299</lat>
		<lon>12.2679567650291</lon>
	</place>
	<place>
		<name>Allergimottagning ÖNH, Allergicentrum US</name>
		<lat>58.402043470242</lat>
		<lon>15.6228147782663</lon>
	</place>
	<place>
		<name>Allergimottagning, Borås</name>
		<lat>57.7250672552708</lat>
		<lon>12.9617585990124</lon>
	</place>
	<place>
		<name>Allergimottagning, Göteborg</name>
		<lat>57.6811884862786</lat>
		<lon>11.9617097877189</lon>
	</place>
	<place>
		<name>Allergimottagning, Varberg</name>
		<lat>0.00587420450848654</lat>
		<lon>2.45441230668005</lon>
	</place>
	<place>
		<name>Allergimottagning, Öron- näsa- halskliniken ViN</name>
		<lat>58.5624314995452</lat>
		<lon>16.1769139529483</lon>
	</place>
	<place>
		<name>Allergiteamet Nyköpings lasarett, Medicinmottagningen Nyköpings lasarett, Landstinget Sörmland</name>
		<lat>58.759432634022</lat>
		<lon>16.9944104970942</lon>
	</place>
	<place>
		<name>Allergi- och lungmottagning, Göteborg</name>
		<lat>57.7218466354215</lat>
		<lon>12.053522265261</lon>
	</place>
	<place>
		<name>Allergologiteamet Kullbergska sjukhuset, Medicinmottagningen Kullbergska sjukhuset, Landstinget Sörmland</name>
		<lat>58.9922281984909</lat>
		<lon>16.2201897917913</lon>
	</place>
	<place>
		<name>Allmottagning mottagning, Sollefteå sjukhus</name>
		<lat>0.00587420450848654</lat>
		<lon>2.45441230668005</lon>
	</place>
	<place>
		<name>Allmänkirurgiska avdelningen</name>
		<lat>0.00587420450848654</lat>
		<lon>2.45441230668005</lon>
	</place>
	<place>
		<name>allmänkirurgi urologi Kalix</name>
		<lat>65.8533070020905</lat>
		<lon>23.1592752575533</lon>
	</place>
	<place>
		<name>Allmänmedicin Denise Konopik</name>
		<lat>57.7054534892121</lat>
		<lon>11.957825518258</lon>
	</place>
	<place>
		<name>Allmänmedicin Lars Lundecrantz, Göteborg</name>
		<lat>57.7088753423802</lat>
		<lon>11.96513560167</lon>
	</place>
	<place>
		<name>Allmänmedicin, Affärshälsan</name>
		<lat>0.00587420450848654</lat>
		<lon>2.45441230668005</lon>
	</place>
	<place>
		<name>Allmänmedicin, Aleris-Torggatans läkarmottagning, Björn Hammar</name>
		<lat>57.7088753423802</lat>
		<lon>11.96513560167</lon>
	</place>
	<place>
		<name>Allmänmedicin, Anders Kågerud</name>
		<lat>0.00587420450848654</lat>
		<lon>2.45441230668005</lon>
	</place>
	<place>
		<name>Allmänmedicin, Boris Cvetkovski</name>
		<lat>0.00587420450848654</lat>
		<lon>2.45441230668005</lon>
	</place>
	<place>
		<name>Allmänmedicin, Dr Lars Rönndahl, Göteborg</name>
		<lat>57.7038238678802</lat>
		<lon>11.9621622829526</lon>
	</place>
	<place>
		<name>Allmänmedicin, Dr Monica Orrhult-Svärdström, Göteborg</name>
		<lat>57.7054386285387</lat>
		<lon>11.9579278352544</lon>
	</place>
	<place>
		<name>Allmänmedicin, Dr Per Lissbrant</name>
		<lat>0.00587420450848654</lat>
		<lon>2.45441230668005</lon>
	</place>
	<place>
		<name>Allmänmedicin, Frihamnsdoktorn i Göteborg</name>
		<lat>0.00587420450848654</lat>
		<lon>2.45441230668005</lon>
	</place>
	<place>
		<name>Allmänmedicin, Husläkaren Kungsladugård</name>
		<lat>0.00587420450848654</lat>
		<lon>2.45441230668005</lon>
	</place>
	<place>
		<name>Allmänmedicin, Husläkarmottagningen Dr Peter Lindvall</name>
		<lat>0.00587420450848654</lat>
		<lon>2.45441230668005</lon>
	</place>
	<place>
		<name>Allmänmedicin, Innerstadens Läkarmottagning</name>
		<lat>0.00587420450848654</lat>
		<lon>2.45441230668005</lon>
	</place>
	<place>
		<name>Allmänmedicin, Josef Zorski</name>
		<lat>0.00587420450848654</lat>
		<lon>2.45441230668005</lon>
	</place>
	<place>
		<name>Allmänmedicin, Medikus</name>
		<lat>0.00587420450848654</lat>
		<lon>2.45441230668005</lon>
	</place>
	<place>
		<name>Allmänmedicin, Peter Revesz Läkarmottagning</name>
		<lat>0.00587420450848654</lat>
		<lon>2.45441230668005</lon>
	</place>
	<place>
		<name>Allmänmedicin, Sisjö Läkarmottagning</name>
		<lat>0.00587420450848654</lat>
		<lon>2.45441230668005</lon>
	</place>
	<place>
		<name>Allmänmedicin, Tuve Läkargrupp, nr 1</name>
		<lat>0.00587420450848654</lat>
		<lon>2.45441230668005</lon>
	</place>
	<place>
		<name>Allmänmedicin, Tuve Läkargrupp, nr 2</name>
		<lat>0.00587420450848654</lat>
		<lon>2.45441230668005</lon>
	</place>
	<place>
		<name>Allmänmedicin, Valands Läkarmottagning, nr 1</name>
		<lat>0.00587420450848654</lat>
		<lon>2.45441230668005</lon>
	</place>
	<place>
		<name>Allmänmedicin, Valands Läkarmottagning, nr 2</name>
		<lat>0.00587420450848654</lat>
		<lon>2.45441230668005</lon>
	</place>
	<place>
		<name>Allmänmottagning, Mölndal</name>
		<lat>57.6600500793452</lat>
		<lon>12.0104650272828</lon>
	</place>
	<place>
		<name>Allmänpediatrik, Hudiksvall</name>
		<lat>0.00587420450848654</lat>
		<lon>2.45441230668005</lon>
	</place>
	<place>
		<name>Allmänpsykiatriska avdelningen</name>
		<lat>56.8677625244745</lat>
		<lon>14.8214916853485</lon>
	</place>
	<place>
		<name>Allmänpsykiatriska dagsjukvårdsenheten</name>
		<lat>59.8599495888008</lat>
		<lon>17.6469321921054</lon>
	</place>
	<place>
		<name>Allmänpsykiatriska mottagningen affektiva sjukdomar Västerås, Sektionen för allmänpsykiatri och beroendevård, Landstinget Västmanland</name>
		<lat>59.6176758101527</lat>
		<lon>16.5857518921997</lon>
	</place>
	<place>
		<name>Allmänpsykiatriska mottagningen Fagersta, Sektionen för allmänpsykiatri och beroendevård, Landstinget Västmanland</name>
		<lat>59.9964147483876</lat>
		<lon>15.8093258678165</lon>
	</place>
	<place>
		<name>Allmänpsykiatriska mottagningen Köping, Sektionen för allmänpsykiatri och beroendevård, Landstinget Västmanland</name>
		<lat>59.5090792144276</lat>
		<lon>16.0026597686611</lon>
	</place>
	<place>
		<name>Allmänpsykiatriska mottagningen Ljungby</name>
		<lat>56.8367208144201</lat>
		<lon>13.9311302822996</lon>
	</place>
	<place>
		<name>Allmänpsykiatriska mottagningen Sala, Sektionen för allmänpsykiatri och beroendevård, Landstinget Västmanland</name>
		<lat>59.9243004648041</lat>
		<lon>16.6019976138629</lon>
	</place>
	<place>
		<name>Allmänpsykiatriska mottagningen ångestsjukdomar Västerås, Sektionen för allmänpsykiatri och beroendevård, Landstinget Västmanland</name>
		<lat>59.6176758101527</lat>
		<lon>16.5857518921997</lon>
	</place>
	<place>
		<name>Allmänpsykiatriska ätstörningsenheten, Centrala Uppsala</name>
		<lat>59.8603388334574</lat>
		<lon>17.6344584091189</lon>
	</place>
	<place>
		<name>Allmänpsykiatrisk mottagning Karlstad</name>
		<lat>59.3815992921558</lat>
		<lon>13.4951634007208</lon>
	</place>
	<place>
		<name>Allmänpsykiatrisk mottagning 1, Centrala Uppsala</name>
		<lat>59.8604025358048</lat>
		<lon>17.6408523608734</lon>
	</place>
	<place>
		<name>Allmänpsykiatrisk mottagning 2</name>
		<lat>59.8604025358048</lat>
		<lon>17.6408523608734</lon>
	</place>
	<place>
		<name>Allmänpsykiatrisk vårdavdelning Gävle, Gävle</name>
		<lat>60.6795156998419</lat>
		<lon>17.1210567548596</lon>
	</place>
	<place>
		<name>Allmänpsykiatrisk vårdavdelning 1 Hudiksvall, Hudiksvall</name>
		<lat>61.7308838915343</lat>
		<lon>17.0977096827766</lon>
	</place>
	<place>
		<name>Allmänpsykiatrisk vårdavdelning 3 Hudiksvall, Hudiksvall</name>
		<lat>0.00587420450848654</lat>
		<lon>2.45441230668005</lon>
	</place>
	<place>
		<name>Allmänpsykiatrisk öppenvård Gävle, Gävle</name>
		<lat>60.6793933185725</lat>
		<lon>17.1207223617745</lon>
	</place>
	<place>
		<name>Allmänpsykiatri</name>
		<lat>0.00587420450848654</lat>
		<lon>2.45441230668005</lon>
	</place>
	<place>
		<name>Allmänpsykiatri 1, Falköping</name>
		<lat>58.1905677789292</lat>
		<lon>13.5531842748492</lon>
	</place>
	<place>
		<name>Allmänpsykiatri 2, Falköping</name>
		<lat>58.1904017978714</lat>
		<lon>13.5529396763779</lon>
	</place>
	<place>
		<name>Allmäntandvård/Almunge</name>
		<lat>59.8659859426994</lat>
		<lon>18.0712235039508</lon>
	</place>
	<place>
		<name>Allmäntandvård/Alunda</name>
		<lat>60.0637994473883</lat>
		<lon>18.081539886292</lon>
	</place>
	<place>
		<name>Allmäntandvård/Bålsta</name>
		<lat>59.5628035172714</lat>
		<lon>17.5131180730375</lon>
	</place>
	<place>
		<name>Allmäntandvård/Dragarbrunnsgatan, Uppsala</name>
		<lat>59.8615206644348</lat>
		<lon>17.6359870560756</lon>
	</place>
	<place>
		<name>Allmäntandvård/Enköping</name>
		<lat>59.6370392798746</lat>
		<lon>17.077071352157</lon>
	</place>
	<place>
		<name>Allmäntandvård/Gottsunda, Uppsala</name>
		<lat>59.8105443584461</lat>
		<lon>17.6307144483212</lon>
	</place>
	<place>
		<name>Allmäntandvård/Heby</name>
		<lat>59.9420864431691</lat>
		<lon>16.8611985246699</lon>
	</place>
	<place>
		<name>Allmäntandvård/Knivsta</name>
		<lat>59.7247713311696</lat>
		<lon>17.7848015985257</lon>
	</place>
	<place>
		<name>Allmäntandvård/Liljeforstorg, Uppsala</name>
		<lat>59.8698318353067</lat>
		<lon>17.657370409272</lon>
	</place>
	<place>
		<name>Allmäntandvård/Skutskär</name>
		<lat>60.6262684057512</lat>
		<lon>17.4115999573759</lon>
	</place>
	<place>
		<name>Allmäntandvård/Storvreta</name>
		<lat>59.9603482529828</lat>
		<lon>17.7029181588562</lon>
	</place>
	<place>
		<name>Allmäntandvård/Tierp</name>
		<lat>60.3366692593519</lat>
		<lon>17.5152792746599</lon>
	</place>
	<place>
		<name>Allmäntandvård/Vretgränd, Uppsala</name>
		<lat>59.8562320116931</lat>
		<lon>17.6437639962162</lon>
	</place>
	<place>
		<name>Allmäntandvård/Västertorg, Uppsala</name>
		<lat>59.8410166115684</lat>
		<lon>17.6019468615743</lon>
	</place>
	<place>
		<name>Allmäntandvård/Årsta, Uppsala</name>
		<lat>59.8657804687803</lat>
		<lon>17.6835326669647</lon>
	</place>
	<place>
		<name>Allmäntandvård/Örsundsbro</name>
		<lat>59.7343105521972</lat>
		<lon>17.3135709818832</lon>
	</place>
	<place>
		<name>Allmäntandvård/Östervåla</name>
		<lat>60.1821431271872</lat>
		<lon>17.1862973833402</lon>
	</place>
	<place>
		<name>Allmäntandvård/Östhammar</name>
		<lat>60.2574241245552</lat>
		<lon>18.3630694914671</lon>
	</place>
	<place>
		<name>Allmänteam, Mölndal</name>
		<lat>57.6609730361436</lat>
		<lon>12.0109721680493</lon>
	</place>
	<place>
		<name>Allmän intermedicinsk mottagning, Hudiksvall</name>
		<lat>61.7294285106181</lat>
		<lon>17.0988217814713</lon>
	</place>
	<place>
		<name>Allmän mottagning barn, Barn- och Ungdomskliniken</name>
		<lat>59.6183113451513</lat>
		<lon>16.5845440623197</lon>
	</place>
	<place>
		<name>Allmän pediatrik Hudiksvall, Hudiksvall</name>
		<lat>0.00587420450848654</lat>
		<lon>2.45441230668005</lon>
	</place>
	<place>
		<name>Allmän pediatrik, Gävle</name>
		<lat>0.00587420450848654</lat>
		<lon>2.45441230668005</lon>
	</place>
	<place>
		<name>Allvårdens rehabilitering, Sollefteå sjukhus</name>
		<lat>0.00587420450848654</lat>
		<lon>2.45441230668005</lon>
	</place>
	<place>
		<name>Allvårdsavdelningen psykiatri Nyköpings lasarett, Landstinget Sörmland</name>
		<lat>58.7606017591532</lat>
		<lon>17.0000320388666</lon>
	</place>
	<place>
		<name>Allvårdsavdelning 47-48, Skövde</name>
		<lat>58.4268537752739</lat>
		<lon>13.8520408400991</lon>
	</place>
	<place>
		<name>Allékliniken Sleipner Vårdcentral, Borås</name>
		<lat>57.7209751478739</lat>
		<lon>12.942436053741</lon>
	</place>
	<place>
		<name>Alsbo Sjukgymnastik</name>
		<lat>0.00587420450848654</lat>
		<lon>2.45441230668005</lon>
	</place>
	<place>
		<name>Alunda vårdcentral</name>
		<lat>60.0634343969099</lat>
		<lon>18.0782275997701</lon>
	</place>
	<place>
		<name>AL Sjukgymnstik i Enköping</name>
		<lat>0.00587420450848654</lat>
		<lon>2.45441230668005</lon>
	</place>
	<place>
		<name>Amadeuskliniken Fyllinge, Halmstad</name>
		<lat>56.6501459900733</lat>
		<lon>12.9248701406839</lon>
	</place>
	<place>
		<name>Amadeuskliniken Söndrum, Halmstad</name>
		<lat>56.6587900568784</lat>
		<lon>12.8062899023305</lon>
	</place>
	<place>
		<name>Amandamottagningen Kalmar</name>
		<lat>56.6580737473588</lat>
		<lon>16.3273596009356</lon>
	</place>
	<place>
		<name>Ambulansstationen i Enköping</name>
		<lat>0.00587420450848654</lat>
		<lon>2.45441230668005</lon>
	</place>
	<place>
		<name>Ambulansstationen i Tierp</name>
		<lat>0.00587420450848654</lat>
		<lon>2.45441230668005</lon>
	</place>
	<place>
		<name>Ambulansstationen i Uppsala</name>
		<lat>0.00587420450848654</lat>
		<lon>2.45441230668005</lon>
	</place>
	<place>
		<name>Ambulansstationen i Östhammar</name>
		<lat>0.00587420450848654</lat>
		<lon>2.45441230668005</lon>
	</place>
	<place>
		<name>Ambulansverksamhet, Kungälv</name>
		<lat>57.878042056837</lat>
		<lon>11.9392848649853</lon>
	</place>
	<place>
		<name>Ambulans Bollnäs Edsbyn, Bollnäs</name>
		<lat>0.00587420450848654</lat>
		<lon>2.45441230668005</lon>
	</place>
	<place>
		<name>Ambulans Gävle, Gävle</name>
		<lat>0.00587420450848654</lat>
		<lon>2.45441230668005</lon>
	</place>
	<place>
		<name>Ambulans Hudiksvall Nordanstig, Hudiksvall</name>
		<lat>0.00587420450848654</lat>
		<lon>2.45441230668005</lon>
	</place>
	<place>
		<name>Ambulans Karlstad</name>
		<lat>59.3909052263978</lat>
		<lon>13.485198797504</lon>
	</place>
	<place>
		<name>Ambulans Ljusdal Los Delsbo, Ljusdal</name>
		<lat>0.00587420450848654</lat>
		<lon>2.45441230668005</lon>
	</place>
	<place>
		<name>Amningsmottagning Gävle, Gävle</name>
		<lat>60.6773747135733</lat>
		<lon>17.1187918488436</lon>
	</place>
	<place>
		<name>Amningsmottagning Hudiksvall, Hudiksvall</name>
		<lat>61.7294374207672</lat>
		<lon>17.0978761741637</lon>
	</place>
	<place>
		<name>Amningsmottagning Norra Älvsborgs Länssjukhus, Trollhättan</name>
		<lat>58.318370570257</lat>
		<lon>12.2629687571524</lon>
	</place>
	<place>
		<name>Amningsmottagning, Borås</name>
		<lat>57.7233498062157</lat>
		<lon>12.9632870724329</lon>
	</place>
	<place>
		<name>Amningsmottagning, Jönköping</name>
		<lat>0.00587420450848654</lat>
		<lon>2.45441230668005</lon>
	</place>
	<place>
		<name>Amningsrådgivning och BB-vård i hemmet, Lidköping</name>
		<lat>58.4994188434051</lat>
		<lon>13.1522337096009</lon>
	</place>
	<place>
		<name>Amurlidens privatläkarmottagning Per Svensson, Tidaholm</name>
		<lat>58.1715511678061</lat>
		<lon>13.9475324058111</lon>
	</place>
	<place>
		<name>Andersberg Din hälsocentral, Gävle</name>
		<lat>60.6502001839676</lat>
		<lon>17.1374141319267</lon>
	</place>
	<place>
		<name>Anderstorps hälsocentral</name>
		<lat>64.7459731966417</lat>
		<lon>20.9887855170056</lon>
	</place>
	<place>
		<name>Anderstorps vårdcentral</name>
		<lat>57.2835769820734</lat>
		<lon>13.6336541788068</lon>
	</place>
	<place>
		<name>Anderstorp Folktandvård, Anderstorp</name>
		<lat>57.2835769820734</lat>
		<lon>13.6336541788068</lon>
	</place>
	<place>
		<name>Andningsfysiologi, Göteborg</name>
		<lat>57.6812089474085</lat>
		<lon>11.961791510733</lon>
	</place>
	<place>
		<name>Aneby Folktandvård, Aneby</name>
		<lat>57.8363639213029</lat>
		<lon>14.8172970357377</lon>
	</place>
	<place>
		<name>Aneby Vårdcentral</name>
		<lat>57.8365463530848</lat>
		<lon>14.8176624164497</lon>
	</place>
	<place>
		<name>Anestesiavdelningen Västervik</name>
		<lat>0.00587420450848654</lat>
		<lon>2.45441230668005</lon>
	</place>
	<place>
		<name>Anestesikliniken, Varberg</name>
		<lat>57.0993775757232</lat>
		<lon>12.2745692382121</lon>
	</place>
	<place>
		<name>Anestesiklinik, Alingsås</name>
		<lat>57.9284795926732</lat>
		<lon>12.5210637952375</lon>
	</place>
	<place>
		<name>Anestesiklin IVA postop Eks</name>
		<lat>57.6664400043599</lat>
		<lon>14.9652102908673</lon>
	</place>
	<place>
		<name>Anestesiklin Operation Eks</name>
		<lat>57.6664400043599</lat>
		<lon>14.9652102908673</lon>
	</place>
	<place>
		<name>Anestesiklin Smärtenheten Eks</name>
		<lat>57.6664400043599</lat>
		<lon>14.9652102908673</lon>
	</place>
	<place>
		<name>Anestesimottagningen</name>
		<lat>59.6170948895714</lat>
		<lon>16.5807775312209</lon>
	</place>
	<place>
		<name>Anestesisektionen, Enköping</name>
		<lat>59.6291746596602</lat>
		<lon>17.0697017888682</lon>
	</place>
	<place>
		<name>Anestesi intensivvårdsklinik ViN, Norrköping</name>
		<lat>58.5636754900134</lat>
		<lon>16.1782672876115</lon>
	</place>
	<place>
		<name>Anestesi och Intensivvårdsklinik, Kungälv</name>
		<lat>57.8773348346772</lat>
		<lon>11.9716330862707</lon>
	</place>
	<place>
		<name>Anestesi onkologen, Göteborg</name>
		<lat>57.6826793823705</lat>
		<lon>11.9619711924413</lon>
	</place>
	<place>
		<name>Anestesi, Falköping</name>
		<lat>58.1786563416264</lat>
		<lon>13.5484806358837</lon>
	</place>
	<place>
		<name>Anestesi, Halmstad</name>
		<lat>56.6802031186747</lat>
		<lon>12.849901515048</lon>
	</place>
	<place>
		<name>Anestesi, Lidköping</name>
		<lat>58.4994188434051</lat>
		<lon>13.1522337096009</lon>
	</place>
	<place>
		<name>Anestesi, Skövde</name>
		<lat>58.4268537752739</lat>
		<lon>13.8520408400991</lon>
	</place>
	<place>
		<name>Anestesi-och Intensivvårdskliniken, Halmstad</name>
		<lat>56.6809891654129</lat>
		<lon>12.8478156993023</lon>
	</place>
	<place>
		<name>Anestesi-Operation Barn, Göteborg</name>
		<lat>57.7202399414925</lat>
		<lon>12.0526810338062</lon>
	</place>
	<place>
		<name>Anestesi- och intensivvårdskliniken Kalmar</name>
		<lat>56.6577189788551</lat>
		<lon>16.3262948383005</lon>
	</place>
	<place>
		<name>Anestesi- och intensivvård</name>
		<lat>59.8492385848209</lat>
		<lon>17.6398630302379</lon>
	</place>
	<place>
		<name>Angereds Läkarhus, Angered</name>
		<lat>57.7975739712573</lat>
		<lon>12.04905375926</lon>
	</place>
	<place>
		<name>Angereds Närsjukhus, Angered</name>
		<lat>57.7978029208262</lat>
		<lon>12.0519250232176</lon>
	</place>
	<place>
		<name>Animare</name>
		<lat>0.00587420450848654</lat>
		<lon>2.45441230668005</lon>
	</place>
	<place>
		<name>Ankarsrums hälsocentral</name>
		<lat>57.6995633227892</lat>
		<lon>16.3335552953633</lon>
	</place>
	<place>
		<name>Anna Schelander, Skövde</name>
		<lat>58.3879610577316</lat>
		<lon>13.84737020741</lon>
	</place>
	<place>
		<name>Annicas sjukgymnastik Annica Lifbom-Johansson, Broddetorp</name>
		<lat>58.3033340545087</lat>
		<lon>13.6046739685816</lon>
	</place>
	<place>
		<name>Anns sjukgymnastik Ann Thomson Ahlbom, Tibro</name>
		<lat>58.4224074324476</lat>
		<lon>14.1677835805415</lon>
	</place>
	<place>
		<name>AnorexiBulimiCenter Kalmar, Kalmar</name>
		<lat>56.6656752806055</lat>
		<lon>16.3617462713129</lon>
	</place>
	<place>
		<name>Anorexi och Bulimi mottagning för vuxna, Göteborg</name>
		<lat>57.7180286850929</lat>
		<lon>12.0006442210879</lon>
	</place>
	<place>
		<name>Anorexi-Bulimimottagning, Göteborg</name>
		<lat>57.7192797651026</lat>
		<lon>12.0530324944166</lon>
	</place>
	<place>
		<name>Anorexi-Bulimi slutenvårdavdelning och dagvårdsenhet, Göteborg</name>
		<lat>57.7197845699232</lat>
		<lon>12.0509646996898</lon>
	</place>
	<place>
		<name>Antenatalavdelning, Trollhättan</name>
		<lat>58.3185511671752</lat>
		<lon>12.2620284900125</lon>
	</place>
	<place>
		<name>Antenatalenhet Östra, Göteborg</name>
		<lat>57.7159849806079</lat>
		<lon>12.0558762330332</lon>
	</place>
	<place>
		<name>Antenatal mottagning KSS, Skövde</name>
		<lat>58.4268537752739</lat>
		<lon>13.8520408400991</lon>
	</place>
	<place>
		<name>Apalby familjeläkarenhet</name>
		<lat>59.6354797704534</lat>
		<lon>16.5303417951739</lon>
	</place>
	<place>
		<name>Apladalens vårdcentral, Värnamo</name>
		<lat>57.1861064749744</lat>
		<lon>14.0403296458324</lon>
	</place>
	<place>
		<name>Apoteksamariten</name>
		<lat>0.00587420450848654</lat>
		<lon>2.45441230668005</lon>
	</place>
	<place>
		<name>Arbetsfysiologi, Göteborg</name>
		<lat>57.6824541067049</lat>
		<lon>11.9607702056994</lon>
	</place>
	<place>
		<name>Arbetsinriktad rehabilitering, Göteborg</name>
		<lat>57.666970895316</lat>
		<lon>11.9290854083943</lon>
	</place>
	<place>
		<name>Arbetslivsinriktad rehabilitering Hjortmossen Trollhättan, Trollhättan</name>
		<lat>58.2752680051419</lat>
		<lon>12.2844719008927</lon>
	</place>
	<place>
		<name>Arbetslivsinriktad rehablitering Holmängen Vänersborg, Vänersborg</name>
		<lat>58.3793368967154</lat>
		<lon>12.3409977925616</lon>
	</place>
	<place>
		<name>Arbetsmiljöutveckling i Hälsingland AB, Bollnäs</name>
		<lat>0.00587420450848654</lat>
		<lon>2.45441230668005</lon>
	</place>
	<place>
		<name>Arbetsterapeutmottagning Arvika</name>
		<lat>59.6654119270352</lat>
		<lon>12.6160988935093</lon>
	</place>
	<place>
		<name>Arbetsterapeutmottagning Centralsjukhuset</name>
		<lat>59.3748247978596</lat>
		<lon>13.4803149264388</lon>
	</place>
	<place>
		<name>Arbetsterapeutmottagning Hagfors</name>
		<lat>60.0330188680445</lat>
		<lon>13.7106895508859</lon>
	</place>
	<place>
		<name>Arbetsterapeutmottagning Kristinehamn</name>
		<lat>59.3052478026609</lat>
		<lon>14.0991786028791</lon>
	</place>
	<place>
		<name>Arbetsterapeutmottagning Sunne</name>
		<lat>59.8447118083557</lat>
		<lon>13.140932047091</lon>
	</place>
	<place>
		<name>Arbetsterapeut, Harmånger</name>
		<lat>61.9265253244618</lat>
		<lon>17.2194090323112</lon>
	</place>
	<place>
		<name>Arbetsterapiavdelning Karlshamn</name>
		<lat>56.18693766106</lat>
		<lon>14.8526241941987</lon>
	</place>
	<place>
		<name>Arbetsterapiavdelning Karlskrona</name>
		<lat>56.1821529091769</lat>
		<lon>15.6051506191884</lon>
	</place>
	<place>
		<name>Arbetsterapiavdelning, Borås</name>
		<lat>57.7267515238547</lat>
		<lon>12.9627514163568</lon>
	</place>
	<place>
		<name>Arbetsterapienheten</name>
		<lat>65.6712204443938</lat>
		<lon>21.9319467006186</lon>
	</place>
	<place>
		<name>Arbetsterapienheten</name>
		<lat>0.00587420450848654</lat>
		<lon>2.45441230668005</lon>
	</place>
	<place>
		<name>Arbetsterapienhet Högsbo, Göteborg</name>
		<lat>57.6677329996654</lat>
		<lon>11.9313688859873</lon>
	</place>
	<place>
		<name>Arbetsterapienhet Mölndal, Mölndal</name>
		<lat>57.660351165311</lat>
		<lon>12.0142064242419</lon>
	</place>
	<place>
		<name>Arbetsterapienhet Sahlgrenska, Göteborg</name>
		<lat>57.6812812415778</lat>
		<lon>11.9597368684156</lon>
	</place>
	<place>
		<name>Arbetsterapienhet Östra, Göteborg</name>
		<lat>57.7206419504755</lat>
		<lon>12.055629044561</lon>
	</place>
	<place>
		<name>Arbetsterapimottagningen Kullbergska sjukhuset, Paramedicin Sörmland, Landstinget Sörmland</name>
		<lat>58.992053600438</lat>
		<lon>16.2186395522361</lon>
	</place>
	<place>
		<name>Arbetsterapimottagningen Mälarsjukhuset, Paramedicin Sörmland, Landstinget Sörmland</name>
		<lat>59.3634475971931</lat>
		<lon>16.5342107309885</lon>
	</place>
	<place>
		<name>Arbetsterapimottagningen Nyköpings lasarett, Paramedicin Sörmland, Landstinget Sörmland</name>
		<lat>58.7592459921596</lat>
		<lon>16.9932290917431</lon>
	</place>
	<place>
		<name>Arbetsterapimottagning Bäckby, Västerås</name>
		<lat>59.5999128824221</lat>
		<lon>16.4767352246113</lon>
	</place>
	<place>
		<name>Arbetsterapimottagning Hallstahammar</name>
		<lat>59.6151600983984</lat>
		<lon>16.2303954194675</lon>
	</place>
	<place>
		<name>Arbetsterapimottagning Hemdal, Västerås</name>
		<lat>59.6215740103159</lat>
		<lon>16.5838398635337</lon>
	</place>
	<place>
		<name>Arbetsterapimottagning Kolsva</name>
		<lat>59.6000350294306</lat>
		<lon>15.8391806627226</lon>
	</place>
	<place>
		<name>Arbetsterapimottagning Norberg</name>
		<lat>60.0600223244941</lat>
		<lon>15.9282742147654</lon>
	</place>
	<place>
		<name>Arbetsterapimottagning Oxbacken, Västerås</name>
		<lat>59.6059239610304</lat>
		<lon>16.5312823166027</lon>
	</place>
	<place>
		<name>Arbetsterapimottagning Sala Väsby</name>
		<lat>59.5091061166447</lat>
		<lon>16.0026775851061</lon>
	</place>
	<place>
		<name>Arbetsterapimottagning Skinnskatteberg</name>
		<lat>59.827679340732</lat>
		<lon>15.6866687901208</lon>
	</place>
	<place>
		<name>Arbetsterapimottagning Ullvi-Tuna, Köping</name>
		<lat>59.5091061166447</lat>
		<lon>16.0026775851061</lon>
	</place>
	<place>
		<name>Arbetsterapin Andersberg, Halmstad</name>
		<lat>0.00587420450848654</lat>
		<lon>2.45441230668005</lon>
	</place>
	<place>
		<name>Arbetsterapin Bäckagård, Halmstad</name>
		<lat>56.6596298703372</lat>
		<lon>12.7823377522723</lon>
	</place>
	<place>
		<name>Arbetsterapin Centrum, Laholm</name>
		<lat>56.5108778430782</lat>
		<lon>13.0405407279843</lon>
	</place>
	<place>
		<name>Arbetsterapin geriatriska kliniken Kalmar</name>
		<lat>0.00587420450848654</lat>
		<lon>2.45441230668005</lon>
	</place>
	<place>
		<name>Arbetsterapin Getinge, Getinge</name>
		<lat>56.8184493560715</lat>
		<lon>12.7300420814654</lon>
	</place>
	<place>
		<name>Arbetsterapin Hertig Knut, Halmstad</name>
		<lat>0.00587420450848654</lat>
		<lon>2.45441230668005</lon>
	</place>
	<place>
		<name>Arbetsterapin Hyltebruk, Hyltebruk</name>
		<lat>56.9937866467554</lat>
		<lon>13.2385207406528</lon>
	</place>
	<place>
		<name>Arbetsterapin Kalmar</name>
		<lat>0.00587420450848654</lat>
		<lon>2.45441230668005</lon>
	</place>
	<place>
		<name>Arbetsterapin Nyhem, Halmstad</name>
		<lat>56.6668101018573</lat>
		<lon>12.880470085729</lon>
	</place>
	<place>
		<name>Arbetsterapin och sjukgymnastiken Kalmar</name>
		<lat>56.6581545670735</lat>
		<lon>16.3273607158673</lon>
	</place>
	<place>
		<name>Arbetsterapin och sjukgymnastiken psykiatrin Kalmar</name>
		<lat>56.6610330382223</lat>
		<lon>16.3283788551473</lon>
	</place>
	<place>
		<name>Arbetsterapin Onsala, ONSALA</name>
		<lat>57.4440868220493</lat>
		<lon>12.0345413629752</lon>
	</place>
	<place>
		<name>Arbetsterapin Oskarström, Oskarström</name>
		<lat>56.8115179499406</lat>
		<lon>12.9611223716422</lon>
	</place>
	<place>
		<name>Arbetsterapin rehabblocket Västervik</name>
		<lat>0.00587420450848654</lat>
		<lon>2.45441230668005</lon>
	</place>
	<place>
		<name>Arbetsterapin Sjukhuset i Torsby</name>
		<lat>60.1374513377713</lat>
		<lon>12.9985745266076</lon>
	</place>
	<place>
		<name>Arbetsterapin Skanslidens Rehab, Varberg</name>
		<lat>57.1058727799411</lat>
		<lon>12.2598637199265</lon>
	</place>
	<place>
		<name>Arbetsterapin sluten vård Oskarshamn</name>
		<lat>0.00587420450848654</lat>
		<lon>2.45441230668005</lon>
	</place>
	<place>
		<name>Arbetsterapin Vallås, Halmstad</name>
		<lat>56.6775351676794</lat>
		<lon>12.909148812805</lon>
	</place>
	<place>
		<name>Arbetsterapin Växjö</name>
		<lat>56.8744672198951</lat>
		<lon>14.807440505245</lon>
	</place>
	<place>
		<name>Arbetsterapiteamet Vårdcentralen Bagaregatan Nyköping, Rehabiliteringsmottagningen Vårdcentralen Bagaregatan Nyköping, Landstinget Sörmland</name>
		<lat>58.7483782268831</lat>
		<lon>17.006281028896</lon>
	</place>
	<place>
		<name>Arbetsterapiteamet Vårdcentralen City Eskilstuna, Landstinget Sörmland</name>
		<lat>59.3717104145945</lat>
		<lon>16.5072298818467</lon>
	</place>
	<place>
		<name>Arbetsterapiteamet Vårdcentralen Ekensberg Nyköping, Landstinget Sörmland</name>
		<lat>58.7606854763983</lat>
		<lon>17.0341470448623</lon>
	</place>
	<place>
		<name>Arbetsterapiteamet Vårdcentralen Familjedoktorerna Strängnäs, Strängnäs</name>
		<lat>59.3793728776558</lat>
		<lon>17.0193322993688</lon>
	</place>
	<place>
		<name>Arbetsterapiteamet Vårdcentralen Flen, Rehabiliteringsmottagningen Vårdcentralen Flen, Landstinget Sörmland</name>
		<lat>59.0675329149346</lat>
		<lon>16.5859220636864</lon>
	</place>
	<place>
		<name>Arbetsterapiteamet Vårdcentralen Fristaden Eskilstuna, Eskilstuna</name>
		<lat>59.3702083804842</lat>
		<lon>16.5177168146531</lon>
	</place>
	<place>
		<name>Arbetsterapiteamet Vårdcentralen Fröslunda Eskilstuna, Landstinget Sörmland</name>
		<lat>59.3523086268136</lat>
		<lon>16.4959835618027</lon>
	</place>
	<place>
		<name>Arbetsterapiteamet Vårdcentralen Gnesta, Landstinget Sörmland</name>
		<lat>59.0454791390677</lat>
		<lon>17.3017478291591</lon>
	</place>
	<place>
		<name>Arbetsterapiteamet Vårdcentralen Kyrkbacken Strängnäs, Strängnäs</name>
		<lat>59.3768029368537</lat>
		<lon>17.033983609626</lon>
	</place>
	<place>
		<name>Arbetsterapiteamet Vårdcentralen Linden Katrineholm, Landstinget Sörmland</name>
		<lat>58.991904311661</lat>
		<lon>16.2204120384348</lon>
	</place>
	<place>
		<name>Arbetsterapiteamet Vårdcentralen Malmköping, Landstinget Sörmland</name>
		<lat>59.1348734069556</lat>
		<lon>16.7344274862272</lon>
	</place>
	<place>
		<name>Arbetsterapiteamet Vårdcentralen Mariefred, Landstinget Sörmland</name>
		<lat>59.2648012045587</lat>
		<lon>17.2163209493398</lon>
	</place>
	<place>
		<name>Arbetsterapiteamet Vårdcentralen Nävertop Katrineholm, Landstinget Sörmland</name>
		<lat>58.9840901703532</lat>
		<lon>16.1835366068122</lon>
	</place>
	<place>
		<name>Arbetsterapiteamet Vårdcentralen Oxelösund, Landstinget Sörmland</name>
		<lat>58.6709852529484</lat>
		<lon>17.1016967519017</lon>
	</place>
	<place>
		<name>Arbetsterapiteamet Vårdcentralen Skiftinge Eskilstuna, Landstinget Sörmland</name>
		<lat>59.3899265990164</lat>
		<lon>16.5378932753146</lon>
	</place>
	<place>
		<name>Arbetsterapiteamet Vårdcentralen Stadsfjärden Nyköping, Nyköping</name>
		<lat>58.7597484250368</lat>
		<lon>16.9952161633543</lon>
	</place>
	<place>
		<name>Arbetsterapiteamet Vårdcentralen Strängnäs, Landstinget Sörmland</name>
		<lat>59.3667713787829</lat>
		<lon>17.0267266953006</lon>
	</place>
	<place>
		<name>Arbetsterapiteamet Vårdcentralen Torshälla, Landstinget Sörmland</name>
		<lat>59.419608367587</lat>
		<lon>16.4855502492496</lon>
	</place>
	<place>
		<name>Arbetsterapiteamet Vårdcentralen Trosa, Landstinget Sörmland</name>
		<lat>58.9020369760176</lat>
		<lon>17.5592023915449</lon>
	</place>
	<place>
		<name>Arbetsterapiteamet Vårdcentralen Tunafors Eskilstuna, Landstinget Sörmland</name>
		<lat>59.3583250127675</lat>
		<lon>16.5320263303108</lon>
	</place>
	<place>
		<name>Arbetsterapiteamet Vårdcentralen Vingåker, Vingåker</name>
		<lat>59.0446885123241</lat>
		<lon>15.8708777941548</lon>
	</place>
	<place>
		<name>Arbetsterapiteamet Vårdcentralen Åsidan Nyköping, Landstinget Sörmland</name>
		<lat>58.7603465887672</lat>
		<lon>16.9994703127401</lon>
	</place>
	<place>
		<name>Arbetsterapiverksamhet Hudiksvall Nordanstig slutenvård, Hudiksvall</name>
		<lat>61.7295067537002</lat>
		<lon>17.0990899344349</lon>
	</place>
	<place>
		<name>Arbetsterapi</name>
		<lat>67.1310899667987</lat>
		<lon>20.688179987703</lon>
	</place>
	<place>
		<name>Arbetsterapi</name>
		<lat>0.00587420450848654</lat>
		<lon>2.45441230668005</lon>
	</place>
	<place>
		<name>Arbetsterapi Alfta Din hälsocentral, Alfta</name>
		<lat>61.3458037187291</lat>
		<lon>16.0695155784545</lon>
	</place>
	<place>
		<name>Arbetsterapi Amadeusklinken Fyllinge, Halmstad</name>
		<lat>56.6510965372695</lat>
		<lon>12.9240146752643</lon>
	</place>
	<place>
		<name>Arbetsterapi Amadeusklinken Söndrum, Halmstad</name>
		<lat>56.6588464864944</lat>
		<lon>12.8056491412685</lon>
	</place>
	<place>
		<name>Arbetsterapi Andersberg Din hälsocentral, Gävle</name>
		<lat>60.651325060317</lat>
		<lon>17.1380273508566</lon>
	</place>
	<place>
		<name>Arbetsterapi Arbrå Din hälsocentral, Arbrå</name>
		<lat>0.00587420450848654</lat>
		<lon>2.45441230668005</lon>
	</place>
	<place>
		<name>Arbetsterapi barn, Göteborg</name>
		<lat>57.7159849806079</lat>
		<lon>12.0558762330332</lon>
	</place>
	<place>
		<name>Arbetsterapi Bergsjö Din hälsocentral, Bergsjö</name>
		<lat>61.9784148619552</lat>
		<lon>17.0549135439911</lon>
	</place>
	<place>
		<name>Arbetsterapi Bollnäs Ovanåker slutenvård, Bollnäs</name>
		<lat>0.00587420450848654</lat>
		<lon>2.45441230668005</lon>
	</place>
	<place>
		<name>Arbetsterapi Borås Bollebygd, Borås</name>
		<lat>57.7210258397127</lat>
		<lon>12.9670120243265</lon>
	</place>
	<place>
		<name>Arbetsterapi Bäckefors, Bäckefors</name>
		<lat>0.00587420450848654</lat>
		<lon>2.45441230668005</lon>
	</place>
	<place>
		<name>Arbetsterapi Capio Citykliniken, Halmstad</name>
		<lat>0.00587420450848654</lat>
		<lon>2.45441230668005</lon>
	</place>
	<place>
		<name>Arbetsterapi Delsbo-Friggesund Din hälsocentral, Delsbo</name>
		<lat>61.8008386658878</lat>
		<lon>16.5571028121196</lon>
	</place>
	<place>
		<name>Arbetsterapi Edsbyn Din hälsocentral, Edsbyn</name>
		<lat>0.00587420450848654</lat>
		<lon>2.45441230668005</lon>
	</place>
	<place>
		<name>Arbetsterapi Ed, Ed</name>
		<lat>58.9126482708552</lat>
		<lon>11.9310086862017</lon>
	</place>
	<place>
		<name>Arbetsterapi Falköping, Falköping</name>
		<lat>58.1786563416264</lat>
		<lon>13.5484806358837</lon>
	</place>
	<place>
		<name>Arbetsterapi Familjeläkarna i Laholm, Laholm</name>
		<lat>0.00587420450848654</lat>
		<lon>2.45441230668005</lon>
	</place>
	<place>
		<name>Arbetsterapi Familjeläkarna Skrea, Falkenberg</name>
		<lat>0.00587420450848654</lat>
		<lon>2.45441230668005</lon>
	</place>
	<place>
		<name>Arbetsterapi Familjeläkarna Söderbro, Falkenberg</name>
		<lat>0.00587420450848654</lat>
		<lon>2.45441230668005</lon>
	</place>
	<place>
		<name>Arbetsterapi Familjeläkarna vid Torget, Laholm</name>
		<lat>0.00587420450848654</lat>
		<lon>2.45441230668005</lon>
	</place>
	<place>
		<name>Arbetsterapi Fjärås, Fjärås</name>
		<lat>0.00587420450848654</lat>
		<lon>2.45441230668005</lon>
	</place>
	<place>
		<name>Arbetsterapi Färila - Los Din hälsocentral, Ljusdal</name>
		<lat>61.8293250757344</lat>
		<lon>16.1085873651693</lon>
	</place>
	<place>
		<name>Arbetsterapi Gamlestadstorget, Göteborg</name>
		<lat>57.7255474604374</lat>
		<lon>12.0076988283301</lon>
	</place>
	<place>
		<name>Arbetsterapi Gullspång, Gullspång</name>
		<lat>58.9794352002806</lat>
		<lon>14.0881067995475</lon>
	</place>
	<place>
		<name>Arbetsterapi Gävle, Gävle</name>
		<lat>0.00587420450848654</lat>
		<lon>2.45441230668005</lon>
	</place>
	<place>
		<name>Arbetsterapi Hamrånge Din hälsocentral, Hamrånge</name>
		<lat>0.00587420450848654</lat>
		<lon>2.45441230668005</lon>
	</place>
	<place>
		<name>Arbetsterapi Handverksamhet Din hälsocentral, Gävle</name>
		<lat>60.6664877740152</lat>
		<lon>17.1494828907327</lon>
	</place>
	<place>
		<name>Arbetsterapi Handverksamhet Södertull Din hälsocentral, Gävle</name>
		<lat>60.6664877740152</lat>
		<lon>17.1494828907327</lon>
	</place>
	<place>
		<name>Arbetsterapi Handverksamhet Västra, Sandviken</name>
		<lat>60.6086802779532</lat>
		<lon>16.7597253032898</lon>
	</place>
	<place>
		<name>Arbetsterapi Hedesunda Din hälsocentral, Hedesunda</name>
		<lat>0.00587420450848654</lat>
		<lon>2.45441230668005</lon>
	</place>
	<place>
		<name>Arbetsterapi Hjo, Hjo</name>
		<lat>58.3100252388257</lat>
		<lon>14.3004850136476</lon>
	</place>
	<place>
		<name>Arbetsterapi Hofors Din hälsocentral, Hofors</name>
		<lat>60.547663982213</lat>
		<lon>16.2865516201769</lon>
	</place>
	<place>
		<name>Arbetsterapi Hudiksvall Hälsocentral, Hudiksvall</name>
		<lat>61.728986038339</lat>
		<lon>17.112368430018</lon>
	</place>
	<place>
		<name>Arbetsterapi Husläkarna i Kungsbacka, Kungsbacka</name>
		<lat>0.00587420450848654</lat>
		<lon>2.45441230668005</lon>
	</place>
	<place>
		<name>Arbetsterapi Håsten, Varberg</name>
		<lat>57.1122422367431</lat>
		<lon>12.2776053617018</lon>
	</place>
	<place>
		<name>Arbetsterapi HälsoRingen Glänninge, LAHOLM</name>
		<lat>0.00587420450848654</lat>
		<lon>2.45441230668005</lon>
	</place>
	<place>
		<name>Arbetsterapi HälsoRingen Knäred, Knäred</name>
		<lat>0.00587420450848654</lat>
		<lon>2.45441230668005</lon>
	</place>
	<place>
		<name>Arbetsterapi Iggesund Din hälsocentral, Iggesund</name>
		<lat>61.6439546941414</lat>
		<lon>17.073838066173</lon>
	</place>
	<place>
		<name>Arbetsterapi Järvsö Din hälsocentral, Järvsö</name>
		<lat>0.00587420450848654</lat>
		<lon>2.45441230668005</lon>
	</place>
	<place>
		<name>Arbetsterapi Karlsborg, Karlsborg</name>
		<lat>58.5299380049342</lat>
		<lon>14.5151068613649</lon>
	</place>
	<place>
		<name>Arbetsterapi Kilafors Din hälsocentral, Kilafors</name>
		<lat>0.00587420450848654</lat>
		<lon>2.45441230668005</lon>
	</place>
	<place>
		<name>Arbetsterapi KSS, Skövde</name>
		<lat>58.4268537752739</lat>
		<lon>13.8520408400991</lon>
	</place>
	<place>
		<name>Arbetsterapi Laurentiuskliniken, Falkenberg</name>
		<lat>0.00587420450848654</lat>
		<lon>2.45441230668005</lon>
	</place>
	<place>
		<name>Arbetsterapi Linden Din hälsocentral, Söderhamn</name>
		<lat>0.00587420450848654</lat>
		<lon>2.45441230668005</lon>
	</place>
	<place>
		<name>Arbetsterapi Linköping, Rörelse och Hälsa</name>
		<lat>58.3962036081355</lat>
		<lon>15.6137990509693</lon>
	</place>
	<place>
		<name>Arbetsterapi Ljusdal - Ramsjö Din hälsocentral, Ljusdal</name>
		<lat>0.00587420450848654</lat>
		<lon>2.45441230668005</lon>
	</place>
	<place>
		<name>Arbetsterapi Läjeskliniken, Träslövsläge</name>
		<lat>0.00587420450848654</lat>
		<lon>2.45441230668005</lon>
	</place>
	<place>
		<name>Arbetsterapi Mariestad, Mariestad</name>
		<lat>58.7036736258463</lat>
		<lon>13.7961943100137</lon>
	</place>
	<place>
		<name>Arbetsterapi Mellerud, Mellerud</name>
		<lat>58.7000216211575</lat>
		<lon>12.4538020845849</lon>
	</place>
	<place>
		<name>Arbetsterapi Mjölby, Rehab Väst</name>
		<lat>58.324929747305</lat>
		<lon>15.1217615658425</lon>
	</place>
	<place>
		<name>Arbetsterapi Motala, Rehab Väst</name>
		<lat>58.5438269208802</lat>
		<lon>15.0261231313209</lon>
	</place>
	<place>
		<name>Arbetsterapi Navets vårdcentral, Varberg</name>
		<lat>0.00587420450848654</lat>
		<lon>2.45441230668005</lon>
	</place>
	<place>
		<name>Arbetsterapi Neptunuskliniken, Varberg</name>
		<lat>0.00587420450848654</lat>
		<lon>2.45441230668005</lon>
	</place>
	<place>
		<name>Arbetsterapi Norra Älvsborgs Länssjukhus, Trollhättan</name>
		<lat>58.3174736079358</lat>
		<lon>12.2682157990802</lon>
	</place>
	<place>
		<name>Arbetsterapi Nossebro, Nossebro</name>
		<lat>58.1911085509153</lat>
		<lon>12.7267579557205</lon>
	</place>
	<place>
		<name>Arbetsterapi Nygård, Bengtsfors</name>
		<lat>59.0287274195591</lat>
		<lon>12.2261120977753</lon>
	</place>
	<place>
		<name>Arbetsterapi och hjälpmedel Munkedal, Munkedal</name>
		<lat>58.4752219512832</lat>
		<lon>11.6709172843774</lon>
	</place>
	<place>
		<name>Arbetsterapi och hjälpmedel Orust, Henån</name>
		<lat>58.2353501153152</lat>
		<lon>11.6801647050925</lon>
	</place>
	<place>
		<name>Arbetsterapi och hjälpmedel sotenäs, Hunnebostrand</name>
		<lat>58.4388105277976</lat>
		<lon>11.3117657562397</lon>
	</place>
	<place>
		<name>Arbetsterapi och hjälpmedel Strömstad, Strömstad</name>
		<lat>58.9363232644443</lat>
		<lon>11.1782892273197</lon>
	</place>
	<place>
		<name>Arbetsterapi och hjälpmedel Tanum, Tanumshede</name>
		<lat>58.7264817684261</lat>
		<lon>11.3192770156226</lon>
	</place>
	<place>
		<name>Arbetsterapi och sjukgymnastik, Mölndal</name>
		<lat>57.660351165311</lat>
		<lon>12.0142064242419</lon>
	</place>
	<place>
		<name>Arbetsterapi Ockelbo Din hälsocentral, Ockelbo</name>
		<lat>60.8888290245008</lat>
		<lon>16.7136829481628</lon>
	</place>
	<place>
		<name>Arbetsterapi psykiatri, Kungälv</name>
		<lat>57.8822537760943</lat>
		<lon>11.9684599401158</lon>
	</place>
	<place>
		<name>Arbetsterapi PVR Skövde, Skövde</name>
		<lat>0.00587420450848654</lat>
		<lon>2.45441230668005</lon>
	</place>
	<place>
		<name>Arbetsterapi Rehabenheten, Lysekil</name>
		<lat>58.2808704736377</lat>
		<lon>11.4410804124172</lon>
	</place>
	<place>
		<name>Arbetsterapi Rehab Hallands sjukhus Halmstad, Halmstad</name>
		<lat>56.6825891892942</lat>
		<lon>12.8467106671918</lon>
	</place>
	<place>
		<name>Arbetsterapi Rehab Hallands sjukhus Varberg, Varberg</name>
		<lat>57.0995178134441</lat>
		<lon>12.2763556646593</lon>
	</place>
	<place>
		<name>Arbetsterapi Sandviken Norra Din hälsocentral, Sandviken</name>
		<lat>60.6086802779532</lat>
		<lon>16.7597253032898</lon>
	</place>
	<place>
		<name>Arbetsterapi Sandviken Norra - Din hälsocentral, Sandviken</name>
		<lat>60.6086802779532</lat>
		<lon>16.7597253032898</lon>
	</place>
	<place>
		<name>Arbetsterapi Sandviken Södra Din hälsocentral, Sandviken</name>
		<lat>60.6086892515022</lat>
		<lon>16.7597255679895</lon>
	</place>
	<place>
		<name>Arbetsterapi Sandviken Södra - Din hälsocentral, Sandviken</name>
		<lat>60.6086892515022</lat>
		<lon>16.7597255679895</lon>
	</place>
	<place>
		<name>Arbetsterapi SiF, Falköping</name>
		<lat>58.1786563416264</lat>
		<lon>13.5484806358837</lon>
	</place>
	<place>
		<name>Arbetsterapi Sjukgymnastik, Sollefteå sjukhus</name>
		<lat>0.00587420450848654</lat>
		<lon>2.45441230668005</lon>
	</place>
	<place>
		<name>Arbetsterapi sjukhuset Gävle, Gävle</name>
		<lat>60.6776668461435</lat>
		<lon>17.1182913733376</lon>
	</place>
	<place>
		<name>Arbetsterapi Skara, Skara</name>
		<lat>58.3913141168238</lat>
		<lon>13.4280644574358</lon>
	</place>
	<place>
		<name>Arbetsterapi Stortorget Din hälsocentral, Gävle</name>
		<lat>0.00587420450848654</lat>
		<lon>2.45441230668005</lon>
	</place>
	<place>
		<name>Arbetsterapi Storvik Din hälsocentral, Storvik</name>
		<lat>60.5867320277812</lat>
		<lon>16.5331369750636</lon>
	</place>
	<place>
		<name>Arbetsterapi Strömsbro Din hälsocentral, Gävle</name>
		<lat>60.7057915801954</lat>
		<lon>17.1630457112409</lon>
	</place>
	<place>
		<name>Arbetsterapi Säröledens Familjeläkare, Särö</name>
		<lat>0.00587420450848654</lat>
		<lon>2.45441230668005</lon>
	</place>
	<place>
		<name>Arbetsterapi Särö, Särö</name>
		<lat>0.00587420450848654</lat>
		<lon>2.45441230668005</lon>
	</place>
	<place>
		<name>Arbetsterapi Sätra Din hälsocentral, Gävle</name>
		<lat>0.00587420450848654</lat>
		<lon>2.45441230668005</lon>
	</place>
	<place>
		<name>Arbetsterapi Söderhamn Din hälsocentral, Söderhamn</name>
		<lat>0.00587420450848654</lat>
		<lon>2.45441230668005</lon>
	</place>
	<place>
		<name>Arbetsterapi Södertull Din hälsocentral, Gävle</name>
		<lat>0.00587420450848654</lat>
		<lon>2.45441230668005</lon>
	</place>
	<place>
		<name>Arbetsterapi Tibro, Tibro</name>
		<lat>58.4251870011004</lat>
		<lon>14.1646588933589</lon>
	</place>
	<place>
		<name>Arbetsterapi Tidaholm, Tidaholm</name>
		<lat>58.1793223576012</lat>
		<lon>13.956408747307</lon>
	</place>
	<place>
		<name>Arbetsterapi Trollhättan, Trollhättan</name>
		<lat>58.283247097815</lat>
		<lon>12.2919700682485</lon>
	</place>
	<place>
		<name>Arbetsterapi Tudorkliniken, Halmstad</name>
		<lat>0.00587420450848654</lat>
		<lon>2.45441230668005</lon>
	</place>
	<place>
		<name>Arbetsterapi Tvååker, Tvååker</name>
		<lat>57.0411068353728</lat>
		<lon>12.4075707262582</lon>
	</place>
	<place>
		<name>Arbetsterapi Töreboda, Töreboda</name>
		<lat>58.706728897807</lat>
		<lon>14.1219387968105</lon>
	</place>
	<place>
		<name>Arbetsterapi Uddevalla Sjukhus, Uddevalla</name>
		<lat>58.355938862168</lat>
		<lon>11.9273154095208</lon>
	</place>
	<place>
		<name>Arbetsterapi Ullared, ULLARED</name>
		<lat>0.00587420450848654</lat>
		<lon>2.45441230668005</lon>
	</place>
	<place>
		<name>Arbetsterapi Valbo Din hälsocentral, Valbo</name>
		<lat>60.6440406905488</lat>
		<lon>17.0076295566336</lon>
	</place>
	<place>
		<name>Arbetsterapi Vara, Vara</name>
		<lat>58.264323310991</lat>
		<lon>12.9673788063985</lon>
	</place>
	<place>
		<name>Arbetsterapi Veddige, Veddige</name>
		<lat>57.2642466449949</lat>
		<lon>12.3225080739594</lon>
	</place>
	<place>
		<name>Arbetsterapi Viktoriakliniken Eldsberga, Halmstad</name>
		<lat>0.00587420450848654</lat>
		<lon>2.45441230668005</lon>
	</place>
	<place>
		<name>Arbetsterapi Viktoriakliniken Kungsgatan, Halmstad</name>
		<lat>0.00587420450848654</lat>
		<lon>2.45441230668005</lon>
	</place>
	<place>
		<name>Arbetsterapi vuxenpsykiatrin Kalmar</name>
		<lat>0.00587420450848654</lat>
		<lon>2.45441230668005</lon>
	</place>
	<place>
		<name>Arbetsterapi Vårdcentralen Berga, Rörelse och Hälsa</name>
		<lat>58.3962036081355</lat>
		<lon>15.6137990509693</lon>
	</place>
	<place>
		<name>Arbetsterapi Vårdcentralen Boxholm, Rehab Väst</name>
		<lat>58.1970166081366</lat>
		<lon>15.0548936011983</lon>
	</place>
	<place>
		<name>Arbetsterapi Vårdcentralen Ekholmen, Rörelse och Hälsa</name>
		<lat>58.3962036081355</lat>
		<lon>15.6137990509693</lon>
	</place>
	<place>
		<name>Arbetsterapi Vårdcentralen Kisa, Rörelse och Hälsa</name>
		<lat>57.9930538732473</lat>
		<lon>15.6365771866172</lon>
	</place>
	<place>
		<name>Arbetsterapi Vårdcentralen Kungsgatan, Rörelse och Hälsa</name>
		<lat>58.3962036081355</lat>
		<lon>15.6137990509693</lon>
	</place>
	<place>
		<name>Arbetsterapi Vårdcentralen Kärna, Rörelse och Hälsa</name>
		<lat>58.3962036081355</lat>
		<lon>15.6137990509693</lon>
	</place>
	<place>
		<name>Arbetsterapi Vårdcentralen Linghem, Rörelse och Hälsa</name>
		<lat>58.3962036081355</lat>
		<lon>15.6137990509693</lon>
	</place>
	<place>
		<name>Arbetsterapi Vårdcentralen Ljungsbro, Rörelse och Hälsa</name>
		<lat>58.5082310476604</lat>
		<lon>15.5034126984595</lon>
	</place>
	<place>
		<name>Arbetsterapi Vårdcentralen Nygatan, Rörelse och Hälsa</name>
		<lat>58.3962036081355</lat>
		<lon>15.6137990509693</lon>
	</place>
	<place>
		<name>Arbetsterapi Vårdcentralen Ryd, Rörelse och Hälsa</name>
		<lat>58.3962036081355</lat>
		<lon>15.6137990509693</lon>
	</place>
	<place>
		<name>Arbetsterapi Vårdcentralen Skäggetorp, Rörelse och Hälsa</name>
		<lat>58.3962036081355</lat>
		<lon>15.6137990509693</lon>
	</place>
	<place>
		<name>Arbetsterapi Vårdcentralen Skänninge, Rehab Väst</name>
		<lat>58.3884540480325</lat>
		<lon>15.0879782655961</lon>
	</place>
	<place>
		<name>Arbetsterapi Vårdcentralen Tannefors, Rörelse och Hälsa</name>
		<lat>58.3962036081355</lat>
		<lon>15.6137990509693</lon>
	</place>
	<place>
		<name>Arbetsterapi Vårdcentralen Vadstena, Rehab Väst</name>
		<lat>58.4530491734638</lat>
		<lon>14.9004053222561</lon>
	</place>
	<place>
		<name>Arbetsterapi Vårdcentralen Åtvidaberg, Rörelse och Hälsa</name>
		<lat>58.1890252915218</lat>
		<lon>16.0112909971541</lon>
	</place>
	<place>
		<name>Arbetsterapi Vårdcentralen Ödeshög, Rehab Väst</name>
		<lat>58.2284568392488</lat>
		<lon>14.6504500787179</lon>
	</place>
	<place>
		<name>Arbetsterapi Vårdcentralen Österbymo, Rörelse och Hälsa</name>
		<lat>57.8252311894312</lat>
		<lon>15.2766156697118</lon>
	</place>
	<place>
		<name>Arbetsterapi Vänersborg, Vänersborg</name>
		<lat>58.3747529610144</lat>
		<lon>12.3207689117666</lon>
	</place>
	<place>
		<name>Arbetsterapi Väster, Västra Frölunda</name>
		<lat>57.6523348833436</lat>
		<lon>11.9088033246279</lon>
	</place>
	<place>
		<name>Arbetsterapi Västra Vall, Varberg</name>
		<lat>0.00587420450848654</lat>
		<lon>2.45441230668005</lon>
	</place>
	<place>
		<name>Arbetsterapi Västra, Sandviken</name>
		<lat>60.6086892515022</lat>
		<lon>16.7597255679895</lon>
	</place>
	<place>
		<name>Arbetsterapi Åsa, ÅSA</name>
		<lat>0.00587420450848654</lat>
		<lon>2.45441230668005</lon>
	</place>
	<place>
		<name>Arbetsterapi ÖV Skövde, Skövde</name>
		<lat>58.3936063868569</lat>
		<lon>13.8407116079955</lon>
	</place>
	<place>
		<name>Arbetsterapi, Carema Vårdcentral Grästorp, Grästorp</name>
		<lat>58.3304263811904</lat>
		<lon>12.6770296592643</lon>
	</place>
	<place>
		<name>Arbetsterapi, Kungälv</name>
		<lat>57.8773348346772</lat>
		<lon>11.9716330862707</lon>
	</place>
	<place>
		<name>Arbetsterapi, Lidköping</name>
		<lat>58.4980001429478</lat>
		<lon>13.1535590455287</lon>
	</place>
	<place>
		<name>Arbetsterapi, Medicinkliniken ViN</name>
		<lat>58.5636754900134</lat>
		<lon>16.1782672876115</lon>
	</place>
	<place>
		<name>Arbetsterapi, Rehab Finspång</name>
		<lat>58.7106200338537</lat>
		<lon>15.7608496734421</lon>
	</place>
	<place>
		<name>Arbetsterapi, Örnsköldsviks sjukhus</name>
		<lat>63.3006192198888</lat>
		<lon>18.7094355935565</lon>
	</place>
	<place>
		<name>Arbetsterapi- psykolog- och logopedienhet</name>
		<lat>62.4080247565947</lat>
		<lon>17.305803018317</lon>
	</place>
	<place>
		<name>Arbets- och miljömedicinska kliniken, Länssjukhuset Sundsvall-Härnösand</name>
		<lat>62.4080247565947</lat>
		<lon>17.305803018317</lon>
	</place>
	<place>
		<name>Arbets- och miljömedicin</name>
		<lat>59.8345762019116</lat>
		<lon>17.6515067123579</lon>
	</place>
	<place>
		<name>Arbets- och miljömedicin, Göteborg</name>
		<lat>57.6880634256836</lat>
		<lon>11.9590340623578</lon>
	</place>
	<place>
		<name>Arbets- och miljömedicin, Halmstad</name>
		<lat>56.6810854326358</lat>
		<lon>12.8480856562751</lon>
	</place>
	<place>
		<name>Arbrå Din hälsocentral, Arbrå</name>
		<lat>61.4704439459549</lat>
		<lon>16.3744410205851</lon>
	</place>
	<place>
		<name>Arjeplogs vårdcentral</name>
		<lat>66.0500231198222</lat>
		<lon>17.8908382253736</lon>
	</place>
	<place>
		<name>Arkadens Läkarmottagning, Sigtuna</name>
		<lat>59.6198270510046</lat>
		<lon>17.8527088898418</lon>
	</place>
	<place>
		<name>Arlanda Sky Clinic, Sigtuna</name>
		<lat>59.6513914891049</lat>
		<lon>17.9304015153685</lon>
	</place>
	<place>
		<name>Aros Läkarmottagning</name>
		<lat>0.00587420450848654</lat>
		<lon>2.45441230668005</lon>
	</place>
	<place>
		<name>Aros läkarmottagning</name>
		<lat>59.8466064797623</lat>
		<lon>17.6250869525995</lon>
	</place>
	<place>
		<name>Art Therapy EHB</name>
		<lat>0.00587420450848654</lat>
		<lon>2.45441230668005</lon>
	</place>
	<place>
		<name>ART-mottagning, Borås</name>
		<lat>57.7250672552708</lat>
		<lon>12.9617585990124</lon>
	</place>
	<place>
		<name>Arvidsjaurs vårdcentral, Norrbottens inland</name>
		<lat>65.5969532369992</lat>
		<lon>19.1684466783512</lon>
	</place>
	<place>
		<name>ASIH Avancerad sjukvård i hemmet Vårdcentralen Strängnäs, Landstinget Sörmland</name>
		<lat>59.3722021348246</lat>
		<lon>17.0171588816342</lon>
	</place>
	<place>
		<name>ASIH Sundsvall</name>
		<lat>0.00587420450848654</lat>
		<lon>2.45441230668005</lon>
	</place>
	<place>
		<name>ASIH - Avancerad sjukvård i hemmet Mälarsjukhuset, Viktoriaenheten onkologi Mälarsjukhuset, Landstinget Sörmland</name>
		<lat>59.3636929837401</lat>
		<lon>16.5336708461718</lon>
	</place>
	<place>
		<name>ASIH - Avancerad sjukvård i hemmet, Avdelning 2 Palliativ vård Nyköpings lasarett, Landstinget Sörmland</name>
		<lat>58.759432634022</lat>
		<lon>16.9944104970942</lon>
	</place>
	<place>
		<name>Askersunds vårdcentral, Askersund</name>
		<lat>58.8840618146988</lat>
		<lon>14.9129709847003</lon>
	</place>
	<place>
		<name>Astmamottagningen Berga</name>
		<lat>56.6916795076785</lat>
		<lon>16.3398844463894</lon>
	</place>
	<place>
		<name>Astmamottagningen Emmaboda</name>
		<lat>56.6330986129093</lat>
		<lon>15.5367965164118</lon>
	</place>
	<place>
		<name>Astmamottagningen Färjestaden</name>
		<lat>56.6490511267974</lat>
		<lon>16.4769039556735</lon>
	</place>
	<place>
		<name>Astmamottagningen Gamleby</name>
		<lat>57.8976968099994</lat>
		<lon>16.3994036163594</lon>
	</place>
	<place>
		<name>Astmamottagningen Högsby</name>
		<lat>57.1714861433237</lat>
		<lon>16.0255297403539</lon>
	</place>
	<place>
		<name>Astmamottagningen Kvarnholmen Kalmar</name>
		<lat>0.00587420450848654</lat>
		<lon>2.45441230668005</lon>
	</place>
	<place>
		<name>Astmamottagningen Landvetter, Landvetter</name>
		<lat>57.6868658061298</lat>
		<lon>12.2111138155089</lon>
	</place>
	<place>
		<name>Astmamottagningen Lindsdal Kalmar</name>
		<lat>0.00587420450848654</lat>
		<lon>2.45441230668005</lon>
	</place>
	<place>
		<name>Astmamottagningen Ljungbyholm Kalmar</name>
		<lat>0.00587420450848654</lat>
		<lon>2.45441230668005</lon>
	</place>
	<place>
		<name>Astmamottagningen Mönsterås</name>
		<lat>57.0354495696598</lat>
		<lon>16.436708819482</lon>
	</place>
	<place>
		<name>Astmamottagningen Mörbylånga</name>
		<lat>0.00587420450848654</lat>
		<lon>2.45441230668005</lon>
	</place>
	<place>
		<name>Astmamottagningen Mörlunda</name>
		<lat>0.00587420450848654</lat>
		<lon>2.45441230668005</lon>
	</place>
	<place>
		<name>Astmamottagningen Norrliden Kalmar</name>
		<lat>0.00587420450848654</lat>
		<lon>2.45441230668005</lon>
	</place>
	<place>
		<name>Astmamottagningen Nybro</name>
		<lat>0.00587420450848654</lat>
		<lon>2.45441230668005</lon>
	</place>
	<place>
		<name>Astmamottagningen Smedby Kalmar</name>
		<lat>0.00587420450848654</lat>
		<lon>2.45441230668005</lon>
	</place>
	<place>
		<name>Astmamottagningen Stensö Kalmar</name>
		<lat>56.6586492882264</lat>
		<lon>16.3250194665567</lon>
	</place>
	<place>
		<name>Astmamottagningen St Trädgårdsg. Västervik</name>
		<lat>0.00587420450848654</lat>
		<lon>2.45441230668005</lon>
	</place>
	<place>
		<name>Astmamottagningen Söderåkra</name>
		<lat>0.00587420450848654</lat>
		<lon>2.45441230668005</lon>
	</place>
	<place>
		<name>Astmamottagningen Vimmerby</name>
		<lat>62.3000043607237</lat>
		<lon>14.099994970677</lon>
	</place>
	<place>
		<name>Astmamottagning Familjeläkarna Skrea, Falkenberg</name>
		<lat>0.00587420450848654</lat>
		<lon>2.45441230668005</lon>
	</place>
	<place>
		<name>Astmamottagning Familjeläkarna Söderbro, Falkenberg</name>
		<lat>0.00587420450848654</lat>
		<lon>2.45441230668005</lon>
	</place>
	<place>
		<name>Astmamottagning Neptunuskliniken, Varberg</name>
		<lat>0.00587420450848654</lat>
		<lon>2.45441230668005</lon>
	</place>
	<place>
		<name>Astmamottagning Sandviken Södra Din hälsocentral, Sandviken</name>
		<lat>60.6086892515022</lat>
		<lon>16.7597255679895</lon>
	</place>
	<place>
		<name>Astmamottagning Slottsskogen, Göteborg</name>
		<lat>57.6906540039739</lat>
		<lon>11.9479005743416</lon>
	</place>
	<place>
		<name>Astmamottagning Säröledens Familjeläkare, Billdal</name>
		<lat>0.00587420450848654</lat>
		<lon>2.45441230668005</lon>
	</place>
	<place>
		<name>Astmamottagning Tudorkliniken, Halmstad</name>
		<lat>0.00587420450848654</lat>
		<lon>2.45441230668005</lon>
	</place>
	<place>
		<name>Astmamottagning Ullared, ULLARED</name>
		<lat>0.00587420450848654</lat>
		<lon>2.45441230668005</lon>
	</place>
	<place>
		<name>Astmamottagning, Cityhälsan Söder</name>
		<lat>58.5750837928641</lat>
		<lon>16.203069645522</lon>
	</place>
	<place>
		<name>Astmasköterska Andersberg Din hälsocentral, Gävle</name>
		<lat>0.00587420450848654</lat>
		<lon>2.45441230668005</lon>
	</place>
	<place>
		<name>Astmasköterska Brynäs, Gävle</name>
		<lat>0.00587420450848654</lat>
		<lon>2.45441230668005</lon>
	</place>
	<place>
		<name>Astmasköterska Mölnlycke, Mölnlycke</name>
		<lat>57.6582312404861</lat>
		<lon>12.1134536912547</lon>
	</place>
	<place>
		<name>Astmasköterska Ockelbo Din hälsocentral, Ockelbo</name>
		<lat>0.00587420450848654</lat>
		<lon>2.45441230668005</lon>
	</place>
	<place>
		<name>Astmasköterska Storvik Din hälsocentral, Storvik</name>
		<lat>0.00587420450848654</lat>
		<lon>2.45441230668005</lon>
	</place>
	<place>
		<name>Astmasköterska - Hälsosamtal Strömsbro Din hälsocentral, Gävle</name>
		<lat>60.7058545705263</lat>
		<lon>17.1630300508901</lon>
	</place>
	<place>
		<name>Astmateamet Vårdcentralen Oxelösund, Landstinget Sörmland</name>
		<lat>58.6709852529484</lat>
		<lon>17.1016967519017</lon>
	</place>
	<place>
		<name>Astma KOL mottagning Söderhamns Din hälsocentral, Söderhamn</name>
		<lat>0.00587420450848654</lat>
		<lon>2.45441230668005</lon>
	</place>
	<place>
		<name>Astma och KOL-mottagning Centrum, Laholm</name>
		<lat>0.00587420450848654</lat>
		<lon>2.45441230668005</lon>
	</place>
	<place>
		<name>Astma - KOL mottagning, Nordanstig</name>
		<lat>0.00587420450848654</lat>
		<lon>2.45441230668005</lon>
	</place>
	<place>
		<name>Astma-KOLteamet Vårdcentralen Strängnäs, Landstinget Sörmland</name>
		<lat>59.3667713787829</lat>
		<lon>17.0267266953006</lon>
	</place>
	<place>
		<name>Astma-KOL-teamet Vårdcentralen Mariefred, Landstinget Sörmland</name>
		<lat>59.2648012045587</lat>
		<lon>17.2163209493398</lon>
	</place>
	<place>
		<name>Astma-KOL-teamet Vårdcentralen Tunafors Eskilstuna, Landstinget Sörmland</name>
		<lat>59.3583250127675</lat>
		<lon>16.5320263303108</lon>
	</place>
	<place>
		<name>Astma- allergimottagningen, Hagfors</name>
		<lat>60.0330188680445</lat>
		<lon>13.7106895508859</lon>
	</place>
	<place>
		<name>Astma- KOL - mottagning Söderhamns Din hälsocentral, Söderhamn</name>
		<lat>0.00587420450848654</lat>
		<lon>2.45441230668005</lon>
	</place>
	<place>
		<name>Astma- och allergisköterska Hudiksvall Din hälsocentral, Hudiksvall</name>
		<lat>0.00587420450848654</lat>
		<lon>2.45441230668005</lon>
	</place>
	<place>
		<name>Astma- och Kolmottagning Kilafors Din hälsocentral, Kilafors</name>
		<lat>61.230655218185</lat>
		<lon>16.5688159409502</lon>
	</place>
	<place>
		<name>Astma- och KOL-mottagning, Carema vårdcentral Berga</name>
		<lat>58.3923202375663</lat>
		<lon>15.6425455687885</lon>
	</place>
	<place>
		<name>Astma- och KOL-mottagning, Centrumklinikens Vårdcentral</name>
		<lat>58.4092947679672</lat>
		<lon>15.6208611476084</lon>
	</place>
	<place>
		<name>Astma- och KOL-mottagning, Cityhälsan Centrum</name>
		<lat>58.5832014097045</lat>
		<lon>16.1784572411819</lon>
	</place>
	<place>
		<name>Astma- och KOL-mottagning, Cityhälsan Norr</name>
		<lat>58.6054522257433</lat>
		<lon>16.1610955025774</lon>
	</place>
	<place>
		<name>Astma- och KOL-mottagning, Johannelunds Vårdcentral AB</name>
		<lat>58.3954690416146</lat>
		<lon>15.6629996012332</lon>
	</place>
	<place>
		<name>Astma- och KOL-mottagning, Kneippens vårdcentral</name>
		<lat>58.5855983032059</lat>
		<lon>16.1626653882837</lon>
	</place>
	<place>
		<name>Astma- och KOL-mottagning, Skarptorps vårdcentral</name>
		<lat>58.5729179160341</lat>
		<lon>16.1475671078072</lon>
	</place>
	<place>
		<name>Astma- och KOL-mottagning, Vilbergens vårdcentral</name>
		<lat>58.5855983032059</lat>
		<lon>16.1626653882837</lon>
	</place>
	<place>
		<name>Astma- och KOL-mottagning, Vårdcentralen Borensberg</name>
		<lat>58.5619937765378</lat>
		<lon>15.2772565149812</lon>
	</place>
	<place>
		<name>Astma- och KOL-mottagning, Vårdcentralen Boxholm</name>
		<lat>58.1970166081366</lat>
		<lon>15.0548936011983</lon>
	</place>
	<place>
		<name>Astma- och KOL-mottagning, Vårdcentralen Brinken</name>
		<lat>58.5291092996236</lat>
		<lon>15.0512199462473</lon>
	</place>
	<place>
		<name>Astma- och KOL-mottagning, Vårdcentralen Ekholmen</name>
		<lat>58.3774419788002</lat>
		<lon>15.6805911809633</lon>
	</place>
	<place>
		<name>Astma- och KOL-mottagning, Vårdcentralen Finspång</name>
		<lat>58.7106200338537</lat>
		<lon>15.7608496734421</lon>
	</place>
	<place>
		<name>Astma- och KOL-mottagning, Vårdcentralen Kisa</name>
		<lat>57.9930538732473</lat>
		<lon>15.6365771866172</lon>
	</place>
	<place>
		<name>Astma- och KOL-mottagning, Vårdcentralen Kolmården</name>
		<lat>58.668937968192</lat>
		<lon>16.3626170871011</lon>
	</place>
	<place>
		<name>Astma- och KOL-mottagning, Vårdcentralen Kungsgatan Linköping</name>
		<lat>58.4129383330745</lat>
		<lon>15.6198668270771</lon>
	</place>
	<place>
		<name>Astma- och KOL-mottagning, Vårdcentralen Kärna</name>
		<lat>58.4203594417627</lat>
		<lon>15.5086164465528</lon>
	</place>
	<place>
		<name>Astma- och KOL-mottagning, Vårdcentralen Lambohov</name>
		<lat>58.3876978455886</lat>
		<lon>15.5639928515105</lon>
	</place>
	<place>
		<name>Astma- och KOL-mottagning, Vårdcentralen Linghem</name>
		<lat>58.4271488355622</lat>
		<lon>15.7821130818869</lon>
	</place>
	<place>
		<name>Astma- och KOL-mottagning, Vårdcentralen Ljungsbro</name>
		<lat>58.5082310476604</lat>
		<lon>15.5034126984595</lon>
	</place>
	<place>
		<name>Astma- och KOL-mottagning, Vårdcentralen Lyckorna</name>
		<lat>58.5440875078896</lat>
		<lon>15.0291226076095</lon>
	</place>
	<place>
		<name>Astma- och KOL-mottagning, Vårdcentralen Mantorp</name>
		<lat>58.3495807872666</lat>
		<lon>15.2872673258012</lon>
	</place>
	<place>
		<name>Astma- och KOL-mottagning, Vårdcentralen Marieberg</name>
		<lat>58.5402862738719</lat>
		<lon>15.0008572211793</lon>
	</place>
	<place>
		<name>Astma- och KOL-mottagning, Vårdcentralen Medicinskt Centrum Norrköping</name>
		<lat>58.5870674747463</lat>
		<lon>16.1887627743284</lon>
	</place>
	<place>
		<name>Astma- och KOL-mottagning, Vårdcentralen Mjölby</name>
		<lat>58.3244723168966</lat>
		<lon>15.1235282221735</lon>
	</place>
	<place>
		<name>Astma- och KOL-mottagning, Vårdcentralen Nygatan</name>
		<lat>58.4095821808015</lat>
		<lon>15.6209451718604</lon>
	</place>
	<place>
		<name>Astma- och KOL-mottagning, Vårdcentralen Ryd</name>
		<lat>58.4097956711971</lat>
		<lon>15.5609843390934</lon>
	</place>
	<place>
		<name>Astma- och KOL-mottagning, Vårdcentralen Skäggetorp</name>
		<lat>58.427649500877</lat>
		<lon>15.5838806459751</lon>
	</place>
	<place>
		<name>Astma- och KOL-mottagning, Vårdcentralen Skänninge</name>
		<lat>58.3884540480325</lat>
		<lon>15.0879782655961</lon>
	</place>
	<place>
		<name>Astma- och KOL-mottagning, Vårdcentralen Skärblacka</name>
		<lat>58.5806693868563</lat>
		<lon>15.91416517053</lon>
	</place>
	<place>
		<name>Astma- och KOL-mottagning, Vårdcentralen Söderköping</name>
		<lat>58.4763027193069</lat>
		<lon>16.3146987637132</lon>
	</place>
	<place>
		<name>Astma- och KOL-mottagning, Vårdcentralen Tannefors</name>
		<lat>58.4070068151564</lat>
		<lon>15.6416050761522</lon>
	</place>
	<place>
		<name>Astma- och KOL-mottagning, Vårdcentralen Vadstena</name>
		<lat>58.4530491734638</lat>
		<lon>14.9004053222561</lon>
	</place>
	<place>
		<name>Astma- och KOL-mottagning, Vårdcentralen Valdemarsvik</name>
		<lat>58.2023591393601</lat>
		<lon>16.591930415712</lon>
	</place>
	<place>
		<name>Astma- och KOL-mottagning, Vårdcentralen Valla</name>
		<lat>58.4026436803589</lat>
		<lon>15.6040491951379</lon>
	</place>
	<place>
		<name>Astma- och KOL-mottagning, Vårdcentralen Vikbolandet</name>
		<lat>58.5752591623221</lat>
		<lon>16.5654097573012</lon>
	</place>
	<place>
		<name>Astma- och KOL-mottagning, Vårdcentralen Åby</name>
		<lat>58.6654799862134</lat>
		<lon>16.1819868238899</lon>
	</place>
	<place>
		<name>Astma- och KOL-mottagning, Vårdcentralen Åtvidaberg</name>
		<lat>58.1896878082569</lat>
		<lon>16.0124508812589</lon>
	</place>
	<place>
		<name>Astma- och KOL-mottagning, Vårdcentralen Ödeshög</name>
		<lat>58.2284568392488</lat>
		<lon>14.6504500787179</lon>
	</place>
	<place>
		<name>Astma- och KOL-mottagning, Vårdcentralen Österbymo</name>
		<lat>57.8252311894312</lat>
		<lon>15.2766156697118</lon>
	</place>
	<place>
		<name>Astma- och KOL-mottagning, Vårdcentralen Östertull</name>
		<lat>58.5879836953118</lat>
		<lon>16.2034047878256</lon>
	</place>
	<place>
		<name>Astma/KOL Biskopsgården, Göteborg</name>
		<lat>57.713548415239</lat>
		<lon>11.8938879785712</lon>
	</place>
	<place>
		<name>Astrakanen läkarcentrum Nybro</name>
		<lat>56.7443687545264</lat>
		<lon>15.9121658065019</lon>
	</place>
	<place>
		<name>Asylhälsa Söderhamn Din hälsocentral, Söderhamn</name>
		<lat>0.00587420450848654</lat>
		<lon>2.45441230668005</lon>
	</place>
	<place>
		<name>Asylhälsa - Söderhamn Din hälsocentral, Söderhamn</name>
		<lat>0.00587420450848654</lat>
		<lon>2.45441230668005</lon>
	</place>
	<place>
		<name>Asylmottagningen Blomstermåla</name>
		<lat>56.9809707114822</lat>
		<lon>16.3330944532396</lon>
	</place>
	<place>
		<name>Asylmottagning, Hagfors</name>
		<lat>60.0330188680445</lat>
		<lon>13.7106895508859</lon>
	</place>
	<place>
		<name>Asylpsykiatrisk mottagning Kalmar</name>
		<lat>56.6613629027656</lat>
		<lon>16.3289541687673</lon>
	</place>
	<place>
		<name>Asyl- och flyktinghälsovården Hultsfred, Hultsfred</name>
		<lat>57.4936615848328</lat>
		<lon>15.8486042547181</lon>
	</place>
	<place>
		<name>Asyl- och Integrationshälsan, Västerås</name>
		<lat>59.6059239610304</lat>
		<lon>16.5312823166027</lon>
	</place>
	<place>
		<name>Attundahälsan Familjeläkare, Sollentuna</name>
		<lat>59.4371811242161</lat>
		<lon>17.9371050074283</lon>
	</place>
	<place>
		<name>Audionommottagningen Falkenberg, Falkenberg</name>
		<lat>56.9077701267578</lat>
		<lon>12.4996823787719</lon>
	</place>
	<place>
		<name>Audionommottagningen Halmstad, Halmstad</name>
		<lat>56.6806095990445</lat>
		<lon>12.848857562864</lon>
	</place>
	<place>
		<name>Audionommottagningen Kalmar</name>
		<lat>0.00587420450848654</lat>
		<lon>2.45441230668005</lon>
	</place>
	<place>
		<name>Audionommottagningen Kungsbacka, Kungsbacka</name>
		<lat>57.4942823132901</lat>
		<lon>12.083223681397</lon>
	</place>
	<place>
		<name>Audionommottagningen Ljungby</name>
		<lat>0.00587420450848654</lat>
		<lon>2.45441230668005</lon>
	</place>
	<place>
		<name>Audionommottagningen Varberg, Varberg</name>
		<lat>57.0997568387296</lat>
		<lon>12.2755898856892</lon>
	</place>
	<place>
		<name>Audionommottagningen Växjö</name>
		<lat>56.874683756492</lat>
		<lon>14.8075659369577</lon>
	</place>
	<place>
		<name>Auroraenhet, Göteborg</name>
		<lat>57.660351165311</lat>
		<lon>12.0142064242419</lon>
	</place>
	<place>
		<name>Auroramottagning, Jönköping</name>
		<lat>0.00587420450848654</lat>
		<lon>2.45441230668005</lon>
	</place>
	<place>
		<name>Auroramottagning, Varberg</name>
		<lat>0.00587420450848654</lat>
		<lon>2.45441230668005</lon>
	</place>
	<place>
		<name>Aurora Terapier, Söderhamn</name>
		<lat>0.00587420450848654</lat>
		<lon>2.45441230668005</lon>
	</place>
	<place>
		<name>Avancerad sjukvård i hemmet, LAH Öst</name>
		<lat>58.5645385156845</lat>
		<lon>16.1778640597826</lon>
	</place>
	<place>
		<name>AVA, Medicinkliniken ViN</name>
		<lat>58.5635149401749</lat>
		<lon>16.1779047656137</lon>
	</place>
	<place>
		<name>Avdelningar, Falköping</name>
		<lat>0.00587420450848654</lat>
		<lon>2.45441230668005</lon>
	</place>
	<place>
		<name>Avdelningen för patologi och cytologi</name>
		<lat>65.6719328989674</lat>
		<lon>21.927226257733</lon>
	</place>
	<place>
		<name>Avdelningen för skopiundersökningar Oskarshamn</name>
		<lat>0.00587420450848654</lat>
		<lon>2.45441230668005</lon>
	</place>
	<place>
		<name>Avdelning barnkirurgi, Kirurgiska kliniken US</name>
		<lat>58.4015475525205</lat>
		<lon>15.6213294029104</lon>
	</place>
	<place>
		<name>Avdelning barnkirurgi, Kirurgiska kliniken ViN</name>
		<lat>58.5630741516661</lat>
		<lon>16.1782093674787</lon>
	</place>
	<place>
		<name>Avdelning Nordhem, Göteborg</name>
		<lat>57.6986414609038</lat>
		<lon>11.9726328664199</lon>
	</place>
	<place>
		<name>Avdelning 103 KAVA US, Kirurgiska kliniken US</name>
		<lat>58.401502391873</lat>
		<lon>15.6211415078243</lon>
	</place>
	<place>
		<name>Avdelning 103, Kirurgiska kliniken US</name>
		<lat>58.401502391873</lat>
		<lon>15.6211415078243</lon>
	</place>
	<place>
		<name>Avdelning 10 HIA MIMA, Medicinska specialistkliniken</name>
		<lat>58.544422910249</lat>
		<lon>15.0281706627249</lon>
	</place>
	<place>
		<name>Avdelning 10 Ortopedi- Kirurgi Nyköpings lasarett, Vårdplatsenheten Nyköpings lasarett, Landstinget Sörmland</name>
		<lat>58.759432634022</lat>
		<lon>16.9944104970942</lon>
	</place>
	<place>
		<name>Avdelning 10, Kungälv</name>
		<lat>57.8773348346772</lat>
		<lon>11.9716330862707</lon>
	</place>
	<place>
		<name>Avdelning 113, Göteborg</name>
		<lat>57.682761919024</lat>
		<lon>11.9567105509852</lon>
	</place>
	<place>
		<name>Avdelning 11, Kirurgiska kliniken ViN</name>
		<lat>58.5645385156845</lat>
		<lon>16.1778640597826</lon>
	</place>
	<place>
		<name>Avdelning 11, Kungälv</name>
		<lat>57.8773348346772</lat>
		<lon>11.9716330862707</lon>
	</place>
	<place>
		<name>Avdelning 11, Medicinska specialistkliniken</name>
		<lat>58.544422910249</lat>
		<lon>15.0281706627249</lon>
	</place>
	<place>
		<name>Avdelning 128, Njurmedicinska kliniken US</name>
		<lat>58.4001811193933</lat>
		<lon>15.6200880964932</lon>
	</place>
	<place>
		<name>Avdelning 128, Reumatologiska kliniken i Östergötland</name>
		<lat>58.4022774799609</lat>
		<lon>15.6232240403779</lon>
	</place>
	<place>
		<name>Avdelning 12 och 25, Göteborg</name>
		<lat>57.6824997006312</lat>
		<lon>11.9619734630814</lon>
	</place>
	<place>
		<name>Avdelning 12 ViN, Urologiska kliniken i Östergötland</name>
		<lat>58.5645385156845</lat>
		<lon>16.1778640597826</lon>
	</place>
	<place>
		<name>Avdelning 12, Kirurgiska kliniken ViN</name>
		<lat>58.5645385156845</lat>
		<lon>16.1778640597826</lon>
	</place>
	<place>
		<name>Avdelning 12, Kungälv</name>
		<lat>57.8773348346772</lat>
		<lon>11.9716330862707</lon>
	</place>
	<place>
		<name>Avdelning 12, Uddevalla</name>
		<lat>58.3559271658783</lat>
		<lon>11.929300110767</lon>
	</place>
	<place>
		<name>Avdelning 132, Göteborg</name>
		<lat>57.6820832406265</lat>
		<lon>11.9592155423341</lon>
	</place>
	<place>
		<name>Avdelning 133, Göteborg</name>
		<lat>57.6829497773351</lat>
		<lon>11.9584524339156</lon>
	</place>
	<place>
		<name>Avdelning 134 och 135, Göteborg</name>
		<lat>57.6821659046318</lat>
		<lon>11.9592738879095</lon>
	</place>
	<place>
		<name>Avdelning 13, Medicinska specialistkliniken</name>
		<lat>58.544422910249</lat>
		<lon>15.0281706627249</lon>
	</place>
	<place>
		<name>Avdelning 14 Hand- och plastikkirurgi sluten vård, Göteborg</name>
		<lat>57.6822184212502</lat>
		<lon>11.9618858312361</lon>
	</place>
	<place>
		<name>Avdelning 14 US, Ögonkliniken US</name>
		<lat>58.4007889429487</lat>
		<lon>15.6244802416034</lon>
	</place>
	<place>
		<name>Avdelning 14, Medicinska specialistkliniken</name>
		<lat>58.544422910249</lat>
		<lon>15.0281706627249</lon>
	</place>
	<place>
		<name>Avdelning 14, Sollefteå sjukhus</name>
		<lat>0.00587420450848654</lat>
		<lon>2.45441230668005</lon>
	</place>
	<place>
		<name>Avdelning 15 A, Barn- och ungdomskliniken VIN</name>
		<lat>58.5645385156845</lat>
		<lon>16.1778640597826</lon>
	</place>
	<place>
		<name>Avdelning 15 B neo, Barn- och ungdomskliniken VIN</name>
		<lat>58.5630214797735</lat>
		<lon>16.1777964493627</lon>
	</place>
	<place>
		<name>Avdelning 15, Göteborg</name>
		<lat>57.6825824735942</lat>
		<lon>11.9614445354219</lon>
	</place>
	<place>
		<name>Avdelning 15, Sollefteå sjukhus</name>
		<lat>0.00587420450848654</lat>
		<lon>2.45441230668005</lon>
	</place>
	<place>
		<name>Avdelning 16, Göteborg</name>
		<lat>57.6825491830579</lat>
		<lon>11.9615319607814</lon>
	</place>
	<place>
		<name>Avdelning 16, Sollefteå sjukhus</name>
		<lat>0.00587420450848654</lat>
		<lon>2.45441230668005</lon>
	</place>
	<place>
		<name>Avdelning 16, Uddevalla</name>
		<lat>58.3559271658783</lat>
		<lon>11.929300110767</lon>
	</place>
	<place>
		<name>Avdelning 17 Ortopedi Mälarsjukhuset, Vårdplatsenheten Mälarsjukhuset, Landstinget Sörmland</name>
		<lat>59.3636929837401</lat>
		<lon>16.5336708461718</lon>
	</place>
	<place>
		<name>Avdelning 17 Reumatologi Mälarsjukhuset, Vårdplatsenheten Mälarsjukhuset, Landstinget Sörmland</name>
		<lat>59.3636929837401</lat>
		<lon>16.5336708461718</lon>
	</place>
	<place>
		<name>Avdelning 17, Öron- näsa- halskliniken ViN</name>
		<lat>58.5624314995452</lat>
		<lon>16.1769139529483</lon>
	</place>
	<place>
		<name>Avdelning 18 endokrinmedicin, EM kliniken US</name>
		<lat>58.401502391873</lat>
		<lon>15.6211415078243</lon>
	</place>
	<place>
		<name>Avdelning 18 Geriatrisk ortopedisk rehab Mälarsjukhuset, Vårdplatsenheten Mälarsjukhuset, Landstinget Sörmland</name>
		<lat>59.3636929837401</lat>
		<lon>16.5336708461718</lon>
	</place>
	<place>
		<name>Avdelning 18 magtarmmedicin, EM kliniken US</name>
		<lat>58.401502391873</lat>
		<lon>15.6211415078243</lon>
	</place>
	<place>
		<name>Avdelning 18 Ortopedi Mälarsjukhuset, Vårdplatsenheten Mälarsjukhuset, Landstinget Sörmland</name>
		<lat>59.3636929837401</lat>
		<lon>16.5336708461718</lon>
	</place>
	<place>
		<name>Avdelning 18, Göteborg</name>
		<lat>57.682262815176</lat>
		<lon>11.9612770822302</lon>
	</place>
	<place>
		<name>Avdelning 19 och 32, Göteborg</name>
		<lat>57.6826100579634</lat>
		<lon>11.9617604137195</lon>
	</place>
	<place>
		<name>Avdelning 1 Kullbergska sjukhuset, Vårdplats- och mottagningsenheten Kullbergska sjukhuset, Landstinget Sörmland</name>
		<lat>58.9918862468729</lat>
		<lon>16.2204466111866</lon>
	</place>
	<place>
		<name>Avdelning 1 Köping, Västmanlands sjukhus Köping</name>
		<lat>59.5091061166447</lat>
		<lon>16.0026775851061</lon>
	</place>
	<place>
		<name>Avdelning 1 Sala, Västmanlands sjukhus Sala, Landstinget Västmanland</name>
		<lat>59.9243004648041</lat>
		<lon>16.6019976138629</lon>
	</place>
	<place>
		<name>Avdelning 1 US, Urologiska kliniken i Östergötland</name>
		<lat>58.401502391873</lat>
		<lon>15.6211415078243</lon>
	</place>
	<place>
		<name>Avdelning 1, Infektionskliniken, Landstinget Västmanland</name>
		<lat>59.6193100364427</lat>
		<lon>16.5796059336492</lon>
	</place>
	<place>
		<name>Avdelning 1, Kungälv</name>
		<lat>57.8773348346772</lat>
		<lon>11.9716330862707</lon>
	</place>
	<place>
		<name>Avdelning 2A Ortopedi Kullbergska sjukhuset, Vårdplats- och mottagningsenheten Kullbergska sjukhuset, Landstinget Sörmland</name>
		<lat>58.991904311661</lat>
		<lon>16.2204120384348</lon>
	</place>
	<place>
		<name>Avdelning 2B Kirurgi Kullbergska sjukhuset, Vårdplats- och mottagningsenheten Kullbergska sjukhuset</name>
		<lat>58.9918347200268</lat>
		<lon>16.2197154120363</lon>
	</place>
	<place>
		<name>Avdelning 2B Kullbergska sjukhuset, Vårdplats- och mottagningsenheten Kullbergska sjukhuset, Landstinget Sörmland</name>
		<lat>58.9918347200268</lat>
		<lon>16.2197154120363</lon>
	</place>
	<place>
		<name>Avdelning 204, Mölndal</name>
		<lat>57.6602103402954</lat>
		<lon>12.010414729353</lon>
	</place>
	<place>
		<name>Avdelning 205, Mölndal</name>
		<lat>57.6600022700875</lat>
		<lon>12.0103694180451</lon>
	</place>
	<place>
		<name>Avdelning 206, Mölndal</name>
		<lat>57.6605135266281</lat>
		<lon>12.0106345462952</lon>
	</place>
	<place>
		<name>Avdelning 207, Mölndal</name>
		<lat>57.660351165311</lat>
		<lon>12.0142064242419</lon>
	</place>
	<place>
		<name>Avdelning 208 BB, Mölndal</name>
		<lat>57.660351165311</lat>
		<lon>12.0142064242419</lon>
	</place>
	<place>
		<name>Avdelning 209 BB, Mölndal</name>
		<lat>57.660351165311</lat>
		<lon>12.0142064242419</lon>
	</place>
	<place>
		<name>Avdelning 20 Psykiatri Mälarsjukhuset, Landstinget Sörmland</name>
		<lat>59.3634622889199</lat>
		<lon>16.531573290607</lon>
	</place>
	<place>
		<name>Avdelning 20 ViN, Infektionskliniken i Östergötland</name>
		<lat>58.5636754900134</lat>
		<lon>16.1782672876115</lon>
	</place>
	<place>
		<name>Avdelning 210 Neonatal, Mölndal</name>
		<lat>57.6600448279049</lat>
		<lon>12.0132826421955</lon>
	</place>
	<place>
		<name>Avdelning 211 - 208 - 209 - Normalförlossning - BB, Göteborg</name>
		<lat>57.6601087758756</lat>
		<lon>12.0103247420729</lon>
	</place>
	<place>
		<name>Avdelning 21 och 34, Göteborg</name>
		<lat>57.6820854771014</lat>
		<lon>11.9610609823064</lon>
	</place>
	<place>
		<name>Avdelning 21 Psykiatri Mälarsjukhuset, Landstinget Sörmland</name>
		<lat>59.3633028752055</lat>
		<lon>16.5311830203049</lon>
	</place>
	<place>
		<name>Avdelning 21, Rättspsykiatriska regionkliniken</name>
		<lat>58.4543305507732</lat>
		<lon>14.8987793417134</lon>
	</place>
	<place>
		<name>Avdelning 228, Mölndal</name>
		<lat>57.660351165311</lat>
		<lon>12.0142064242419</lon>
	</place>
	<place>
		<name>Avdelning 22 Psykiatri Mälarsjukhuset, Landstinget Sörmland</name>
		<lat>59.3633814781195</lat>
		<lon>16.5331893854595</lon>
	</place>
	<place>
		<name>Avdelning 22, Rättspsykiatriska regionkliniken</name>
		<lat>58.4543305507732</lat>
		<lon>14.8987793417134</lon>
	</place>
	<place>
		<name>Avdelning 230, Mölndal</name>
		<lat>57.6612641350421</lat>
		<lon>12.01258506934</lon>
	</place>
	<place>
		<name>Avdelning 231, Mölndal</name>
		<lat>57.6605834489848</lat>
		<lon>12.009671428364</lon>
	</place>
	<place>
		<name>Avdelning 232, Mölndal</name>
		<lat>57.6605844536228</lat>
		<lon>12.0097048602998</lon>
	</place>
	<place>
		<name>Avdelning 233, Mölndal</name>
		<lat>57.6607039368325</lat>
		<lon>12.0097929725487</lon>
	</place>
	<place>
		<name>Avdelning 234, Mölndal</name>
		<lat>57.6609676890171</lat>
		<lon>12.0095976948022</lon>
	</place>
	<place>
		<name>Avdelning 235, Mölndal</name>
		<lat>57.6607854914332</lat>
		<lon>12.0095161435196</lon>
	</place>
	<place>
		<name>Avdelning 236, Mölndal</name>
		<lat>57.660351165311</lat>
		<lon>12.0142064242419</lon>
	</place>
	<place>
		<name>Avdelning 237, Mölndal</name>
		<lat>57.6608327990115</lat>
		<lon>12.0095950375454</lon>
	</place>
	<place>
		<name>Avdelning 238 och 239, Mölndal</name>
		<lat>57.660351165311</lat>
		<lon>12.0142064242419</lon>
	</place>
	<place>
		<name>Avdelning 23, Rättspsykiatriska regionkliniken</name>
		<lat>58.4543305507732</lat>
		<lon>14.8987793417134</lon>
	</place>
	<place>
		<name>Avdelning 23, Trollhättan</name>
		<lat>58.3160681514145</lat>
		<lon>12.2645141845767</lon>
	</place>
	<place>
		<name>Avdelning 240, Mölndal</name>
		<lat>57.6613386955184</lat>
		<lon>12.0102799428012</lon>
	</place>
	<place>
		<name>Avdelning 241, Mölndal</name>
		<lat>57.6619769677168</lat>
		<lon>12.010883946108</lon>
	</place>
	<place>
		<name>Avdelning 242, Mölndal</name>
		<lat>57.6620782896223</lat>
		<lon>12.0100684279126</lon>
	</place>
	<place>
		<name>Avdelning 243, Mölndal</name>
		<lat>57.6606906697688</lat>
		<lon>12.0123431805238</lon>
	</place>
	<place>
		<name>Avdelning 244, Mölndal</name>
		<lat>57.661337771968</lat>
		<lon>12.0105483411343</lon>
	</place>
	<place>
		<name>Avdelning 245, Mölndal</name>
		<lat>57.662021602502</lat>
		<lon>12.0102755878275</lon>
	</place>
	<place>
		<name>Avdelning 24 Psykiatri Mälarsjukhuset, Landstinget Sörmland</name>
		<lat>59.3633814781195</lat>
		<lon>16.5331893854595</lon>
	</place>
	<place>
		<name>Avdelning 24, Rättspsykiatriska regionkliniken</name>
		<lat>58.4543305507732</lat>
		<lon>14.8987793417134</lon>
	</place>
	<place>
		<name>Avdelning 24, Uddevalla</name>
		<lat>58.3661169821286</lat>
		<lon>11.93250838628</lon>
	</place>
	<place>
		<name>Avdelning 25, Rättspsykiatriska regionkliniken</name>
		<lat>58.4543305507732</lat>
		<lon>14.8987793417134</lon>
	</place>
	<place>
		<name>Avdelning 25, Vuxenpsykiatriska kliniken ViN</name>
		<lat>58.5636180483013</lat>
		<lon>16.1825793487974</lon>
	</place>
	<place>
		<name>Avdelning 26 PIVA, Vuxenpsykiatriska kliniken ViN</name>
		<lat>58.5636180483013</lat>
		<lon>16.1825793487974</lon>
	</place>
	<place>
		<name>Avdelning 26, Rättspsykiatriska regionkliniken</name>
		<lat>58.4543305507732</lat>
		<lon>14.8987793417134</lon>
	</place>
	<place>
		<name>Avdelning 27 Hand- och plastikkirurgi sluten vård barn, Göteborg</name>
		<lat>57.6824998188206</lat>
		<lon>11.9599096250382</lon>
	</place>
	<place>
		<name>Avdelning 27, Trollhättan</name>
		<lat>58.3173358494935</lat>
		<lon>12.2635676042277</lon>
	</place>
	<place>
		<name>Avdelning 27, Öron- näsa- halskliniken US</name>
		<lat>58.4001811193933</lat>
		<lon>15.6200880964932</lon>
	</place>
	<place>
		<name>Avdelning 28, Beroendekliniken ViN</name>
		<lat>58.5636180483013</lat>
		<lon>16.1825793487974</lon>
	</place>
	<place>
		<name>Avdelning 28, Göteborg</name>
		<lat>57.6824932856729</lat>
		<lon>11.9620580384739</lon>
	</place>
	<place>
		<name>Avdelning 29, Trollhättan</name>
		<lat>58.3169274680492</lat>
		<lon>12.2682874849494</lon>
	</place>
	<place>
		<name>Avdelning 2 Köping, Västmanlands sjukhus Köping</name>
		<lat>59.5091061166447</lat>
		<lon>16.0026775851061</lon>
	</place>
	<place>
		<name>Avdelning 2 Palliativ vård Nyköpings lasarett, Vårdplatsenheten Nyköpings lasarett, Landstinget Sörmland</name>
		<lat>58.759432634022</lat>
		<lon>16.9944104970942</lon>
	</place>
	<place>
		<name>Avdelning 2, Kungälv</name>
		<lat>57.8773348346772</lat>
		<lon>11.9716330862707</lon>
	</place>
	<place>
		<name>Avdelning 301, Göteborg</name>
		<lat>57.7214812101774</lat>
		<lon>12.0548366631786</lon>
	</place>
	<place>
		<name>Avdelning 302, Göteborg</name>
		<lat>57.7214284651856</lat>
		<lon>12.0545733864873</lon>
	</place>
	<place>
		<name>Avdelning 303, Göteborg</name>
		<lat>57.7215683223132</lat>
		<lon>12.0547436557166</lon>
	</place>
	<place>
		<name>Avdelning 304 dagvård, Göteborg</name>
		<lat>57.7215648262733</lat>
		<lon>12.0549287783565</lon>
	</place>
	<place>
		<name>Avdelning 304, Göteborg</name>
		<lat>57.7215648262733</lat>
		<lon>12.0549287783565</lon>
	</place>
	<place>
		<name>Avdelning 306, Göteborg</name>
		<lat>57.7159849806079</lat>
		<lon>12.0558762330332</lon>
	</place>
	<place>
		<name>Avdelning 30</name>
		<lat>59.6171134681885</lat>
		<lon>16.580671653745</lon>
	</place>
	<place>
		<name>Avdelning 308 Normalförlossning, Göteborg</name>
		<lat>57.7215241227466</lat>
		<lon>12.052951021413</lon>
	</place>
	<place>
		<name>Avdelning 31A, Ortopedklinik US</name>
		<lat>58.4013169534003</lat>
		<lon>15.623297431013</lon>
	</place>
	<place>
